{
  "editableBuffers": [
    {
      "ni": 1102,
      "currentLat": -4.158103638586351,
      "currentLng": -79.98184204101564,
      "originalLat": -4.116543539,
      "originalLng": -80.10492951,
      "nucleoName": "UNIDAD EDUCATIVA PINDAL",
      "moved": true
    },
    {
      "ni": 1094,
      "currentLat": -4.584908386,
      "currentLng": -79.42871677,
      "originalLat": -4.584908386,
      "originalLng": -79.42871677,
      "nucleoName": "UNIDAD EDUCATIVA FISCOMISIONAL MONSEÑOR LUIS ALFONSO CRESPO CHIRIBOGA",
      "moved": false
    },
    {
      "ni": 1039,
      "currentLat": -1.8618548574369598,
      "currentLng": -79.6556854248047,
      "originalLat": -1.812958603,
      "originalLng": -79.75661889,
      "nucleoName": "UNIDAD EDUCATIVA ZENON VELEZ VITERI",
      "moved": true
    },
    {
      "ni": 1775,
      "currentLat": -2.9459553006917565,
      "currentLng": -79.04268264770509,
      "originalLat": -2.865277757,
      "originalLng": -78.93833334,
      "nucleoName": "UNIDAD EDUCATIVA PARTICULAR AMERICAN SCHOOL",
      "moved": true
    },
    {
      "ni": 17,
      "currentLat": -2.458956588,
      "currentLng": -79.11644189,
      "originalLat": -2.458956588,
      "originalLng": -79.11644189,
      "nucleoName": "UNIDAD EDUCATIVA SEVERO ESPINOSA VALDIVIESO",
      "moved": false
    },
    {
      "ni": 1413,
      "currentLat": -1.4980897753593827,
      "currentLng": -80.44738769531251,
      "originalLat": -1.593600134,
      "originalLng": -80.39909972,
      "nucleoName": "UNIDAD EDUCATIVA FISCAL CAMPOZANO",
      "moved": true
    },
    {
      "ni": 1861,
      "currentLat": -1.5523155501981993,
      "currentLng": -79.01092529296876,
      "originalLat": -1.562306266,
      "originalLng": -79.01067531,
      "nucleoName": "EEB VICENTE ROCAFUERTE",
      "moved": true
    },
    {
      "ni": 1866,
      "currentLat": -1.78224425656603,
      "currentLng": -79.31373596191406,
      "originalLat": -1.705222369,
      "originalLng": -79.04776998,
      "nucleoName": "UNIDAD EDUCATIVA DEL MILENIO ANGEL POLIBIO CHAVES",
      "moved": true
    },
    {
      "ni": 351,
      "currentLat": -2.05949288957668,
      "currentLng": -79.8754119873047,
      "originalLat": -1.880012873,
      "originalLng": -79.86061163,
      "nucleoName": "UNIDAD EDUCATIVA VEINTISIETE DE AGOSTO",
      "moved": true
    },
    {
      "ni": 1040,
      "currentLat": -1.7005711854472678,
      "currentLng": -80.14320373535158,
      "originalLat": -1.714934163,
      "originalLng": -79.86116342,
      "nucleoName": "UNIDAD EDUCATIVA JUNQUILLAL",
      "moved": true
    },
    {
      "ni": 1865,
      "currentLat": -1.7053755810537563,
      "currentLng": -79.19288635253908,
      "originalLat": -1.711970607,
      "originalLng": -79.04182377,
      "nucleoName": "UNIDAD EDUCATIVA 10 DE ENERO",
      "moved": true
    },
    {
      "ni": 2178,
      "currentLat": -2.688603214003681,
      "currentLng": -78.23020935058594,
      "originalLat": -2.71764831,
      "originalLng": -78.31979641,
      "nucleoName": "UNIDAD EDUCATIVA  24 DE MAYO",
      "moved": true
    },
    {
      "ni": 1272,
      "currentLat": -0.6378804992003467,
      "currentLng": -79.94064331054689,
      "originalLat": -0.845756072,
      "originalLng": -79.92794478,
      "nucleoName": "UNIDAD EDUCATIVA MEMBRILLO",
      "moved": true
    },
    {
      "ni": 1844,
      "currentLat": -3.341359761,
      "currentLng": -79.06444344,
      "originalLat": -3.341359761,
      "originalLng": -79.06444344,
      "nucleoName": "UNIDAD EDUCATIVA  NABON",
      "moved": false
    },
    {
      "ni": 1431,
      "currentLat": -0.9262444432751159,
      "currentLng": -79.77035522460939,
      "originalLat": -1.045535001,
      "originalLng": -79.82270084,
      "nucleoName": "PICHINCHA",
      "moved": true
    },
    {
      "ni": 8,
      "currentLat": -1.2962761196418089,
      "currentLng": -79.18945312500001,
      "originalLat": -1.631446347,
      "originalLng": -79.25719526,
      "nucleoName": "ESCUELA DE EDUCACION BASICA ALFREDO NOBOA MONTENEGRO",
      "moved": true
    },
    {
      "ni": 321,
      "currentLat": -1.188371067,
      "currentLng": -79.75727086,
      "originalLat": -1.188371067,
      "originalLng": -79.75727086,
      "nucleoName": "ESCUELA DE EDUCACION BASICA ELOY ALFARO",
      "moved": false
    },
    {
      "ni": 1103,
      "currentLat": -4.097150702665063,
      "currentLng": -80.1335906982422,
      "originalLat": -4.015694442,
      "originalLng": -80.0211389,
      "nucleoName": "UNIDAD EDUCATIVA FISCOMISIONAL GRAN COLOMBIA",
      "moved": true
    },
    {
      "ni": 1104,
      "currentLat": -4.023179110282761,
      "currentLng": -80.0182342529297,
      "originalLat": -4.018670967,
      "originalLng": -80.01858148,
      "nucleoName": "UNIDAD EDUCATIVA JULIO ISAAC ESPINOSA OCHOA",
      "moved": true
    },
    {
      "ni": 1245,
      "currentLat": -1.21115246707424,
      "currentLng": -79.30240631103517,
      "originalLat": -1.268989365,
      "originalLng": -79.42549931,
      "nucleoName": "UNIDAD EDUCATIVA DEL MILENIO JOSE DE SAN MARTIN",
      "moved": true
    },
    {
      "ni": 1263,
      "currentLat": -1.2248822742251135,
      "currentLng": -80.41305541992189,
      "originalLat": -1.274056706,
      "originalLng": -80.42165153,
      "nucleoName": "UNIDAD EDUCATIVA FISCAL SUCRE",
      "moved": true
    },
    {
      "ni": 1290,
      "currentLat": -0.22590578675855977,
      "currentLng": -80.05325317382814,
      "originalLat": -0.27574999,
      "originalLng": -80.04099998,
      "nucleoName": "UNIDAD EDUCATIVA DR JOSÉ MARÍA EGAS",
      "moved": true
    },
    {
      "ni": 1338,
      "currentLat": -0.933148183,
      "currentLng": -80.2049173,
      "originalLat": -0.933148183,
      "originalLng": -80.2049173,
      "nucleoName": "CARLOS A GARCIA MORA",
      "moved": false
    },
    {
      "ni": 1517,
      "currentLat": -0.3254682203214484,
      "currentLng": -80.18440246582033,
      "originalLat": -0.381531486,
      "originalLng": -80.18445344,
      "nucleoName": "SAN ISIDRO",
      "moved": true
    },
    {
      "ni": 1924,
      "currentLat": -1.907148949095866,
      "currentLng": -78.67927551269533,
      "originalLat": -1.888091641,
      "originalLng": -78.72193714,
      "nucleoName": "UNIDAD EDUCATIVA COMUNITARIA INTERCULTURAL BILINGÜE HUALCOPO DUCHICELA",
      "moved": true
    },
    {
      "ni": 2202,
      "currentLat": -1.035222219,
      "currentLng": -77.67138886,
      "originalLat": -1.035222219,
      "originalLng": -77.67138886,
      "nucleoName": "UNIDAD EDUCATIVA MISAHUALLI",
      "moved": false
    },
    {
      "ni": 2229,
      "currentLat": -0.37353251022880474,
      "currentLng": -77.82440185546876,
      "originalLat": -0.692166686,
      "originalLng": -77.13744445,
      "nucleoName": "UNIDAD EDUCATIVA FISCOMISIONAL PADRE RICARDO NARDI",
      "moved": true
    },
    {
      "ni": 1048,
      "currentLat": -1.990431157,
      "currentLng": -79.76208633,
      "originalLat": -1.990431157,
      "originalLng": -79.76208633,
      "nucleoName": "UNIDAD EDUCATIVA FISCAL OSWALDO GUAYASAMÍN",
      "moved": false
    },
    {
      "ni": 1275,
      "currentLat": -0.801388892,
      "currentLng": -80.12983333,
      "originalLat": -0.801388892,
      "originalLng": -80.12983333,
      "nucleoName": "UNIDAD EDUCATIVA CARLOS POMERIO ZAMBRANO",
      "moved": false
    },
    {
      "ni": 1432,
      "currentLat": -1.057027777,
      "currentLng": -80.01277774,
      "originalLat": -1.057027777,
      "originalLng": -80.01277774,
      "nucleoName": "SEBASTIAN MUÑOZ",
      "moved": false
    },
    {
      "ni": 1876,
      "currentLat": -2.7431302157528425,
      "currentLng": -78.83857727050783,
      "originalLat": -2.775190971,
      "originalLng": -78.84965525,
      "nucleoName": "UNIDAD EDUCATIVA FISCOMISIONAL EMILIA MERCHAN",
      "moved": true
    },
    {
      "ni": 1925,
      "currentLat": -1.435625513519856,
      "currentLng": -78.67034912109376,
      "originalLat": -1.909564181,
      "originalLng": -78.6424523,
      "nucleoName": "UNIDAD EDUCATIVA DR EMILIO UZCATEGUI",
      "moved": true
    },
    {
      "ni": 1934,
      "currentLat": -1.7520462233579808,
      "currentLng": -78.58863830566408,
      "originalLat": -1.806397916,
      "originalLng": -78.60181054,
      "nucleoName": "UNIDAD EDUCATIVA LICTO",
      "moved": true
    },
    {
      "ni": 2697,
      "currentLat": -0.31722860383025164,
      "currentLng": -78.33560943603516,
      "originalLat": -0.306729806,
      "originalLng": -78.45519165,
      "nucleoName": "SAN RAFAEL",
      "moved": true
    },
    {
      "ni": 1879,
      "currentLat": -2.5740543393115654,
      "currentLng": -78.7712860107422,
      "originalLat": -2.712697243,
      "originalLng": -78.89076613,
      "nucleoName": "UNIDAD EDUCATIVA FISCOMISIONAL CORAZON DE MARIA",
      "moved": true
    },
    {
      "ni": 2150,
      "currentLat": -3.9043311049239287,
      "currentLng": -79.18670654296875,
      "originalLat": -3.9444448,
      "originalLng": -79.22542672,
      "nucleoName": "UNIDAD EDUCATIVA  MARIETA DE VEINTIMILLA",
      "moved": true
    },
    {
      "ni": 1075,
      "currentLat": -1.7259657116647518,
      "currentLng": -79.83524322509767,
      "originalLat": -1.707233017,
      "originalLng": -80.01789399,
      "nucleoName": "UNIDAD EDUCATIVA PORVENIR",
      "moved": true
    },
    {
      "ni": 1502,
      "currentLat": -1.151427006809655,
      "currentLng": -80.14389038085939,
      "originalLat": -1.209545255,
      "originalLng": -80.07049774,
      "nucleoName": "PUEBLO NUEVO",
      "moved": true
    },
    {
      "ni": 1518,
      "currentLat": -0.4181634019213647,
      "currentLng": -80.28533935546876,
      "originalLat": -0.376771836,
      "originalLng": -80.27187085,
      "nucleoName": "UNIDAD EDUCATIVA 6 DE DICIEMBRE",
      "moved": true
    },
    {
      "ni": 1853,
      "currentLat": -1.945808929,
      "currentLng": -79.06204182,
      "originalLat": -1.945808929,
      "originalLng": -79.06204182,
      "nucleoName": "UNIDAD EDUCATIVA CHILLANES",
      "moved": false
    },
    {
      "ni": 2129,
      "currentLat": -4.321078032218637,
      "currentLng": -79.21966552734376,
      "originalLat": -4.216138866,
      "originalLng": -79.26916668,
      "nucleoName": "UNIDAD EDUCATIVA FISCOMISIONAL MANUEL JOSÉ  RODRIGUEZ",
      "moved": true
    },
    {
      "ni": 2191,
      "currentLat": -0.8939761761440846,
      "currentLng": -77.76947021484376,
      "originalLat": -0.907861115,
      "originalLng": -77.80055555,
      "nucleoName": "UNIDAD EDUCATIVA FISCOMISIONAL LEONARDO MURIALDO",
      "moved": true
    },
    {
      "ni": 2490,
      "currentLat": -0.1606748382331723,
      "currentLng": -78.51963043212892,
      "originalLat": -0.217613597,
      "originalLng": -78.49519955,
      "nucleoName": "UNIDAD EDUCATIVA PARTICULAR MARÍA AUXILIADORA",
      "moved": true
    },
    {
      "ni": 359,
      "currentLat": -1.7875631772659994,
      "currentLng": -79.95935440063477,
      "originalLat": -1.788500926,
      "originalLng": -79.90592208,
      "nucleoName": "UNIDAD EDUCATIVA LAUREL",
      "moved": true
    },
    {
      "ni": 1259,
      "currentLat": -1.5907532346635287,
      "currentLng": -79.85515594482423,
      "originalLat": -1.607394961,
      "originalLng": -79.86482039,
      "nucleoName": "UNIDAD EDUCATIVA LIC RAFAEL SOTOMAYOR GALLARDO",
      "moved": true
    },
    {
      "ni": 1273,
      "currentLat": -0.9293339429629534,
      "currentLng": -80.06389617919923,
      "originalLat": -0.886172382,
      "originalLng": -80.09695093,
      "nucleoName": "UNIDAD EDUCATIVA DR WILFRIDO LOOR MOREIRA",
      "moved": true
    },
    {
      "ni": 1433,
      "currentLat": -1.0395242636084936,
      "currentLng": -79.88433837890625,
      "originalLat": -1.069698103,
      "originalLng": -79.97403133,
      "nucleoName": "UNIDAD EDUCATIVA EUGENIO ESPEJO",
      "moved": true
    },
    {
      "ni": 1499,
      "currentLat": -1.15391905,
      "currentLng": -80.28124891,
      "originalLat": -1.15391905,
      "originalLng": -80.28124891,
      "nucleoName": "UNIDAD EDUCATIVA MARISCAL DE AYACUCHO",
      "moved": false
    },
    {
      "ni": 1684,
      "currentLat": -0.16548133731733586,
      "currentLng": -79.42909240722658,
      "originalLat": -0.385755968,
      "originalLng": -79.37033903,
      "nucleoName": "UNIDAD EDUCATIVA PUERTO LIMON",
      "moved": true
    },
    {
      "ni": 2028,
      "currentLat": -0.698724017,
      "currentLng": -78.88567333,
      "originalLat": -0.698724017,
      "originalLng": -78.88567333,
      "nucleoName": "UNIDAD EDUCATIVA DEL MILENIO SIGCHOS",
      "moved": false
    },
    {
      "ni": 2314,
      "currentLat": -0.2945696251637038,
      "currentLng": -78.46984863281251,
      "originalLat": -0.376343416,
      "originalLng": -78.50490529,
      "nucleoName": "ESCUELA DE EDUCACION BASICA REPUBLICA DE ARGENTINA",
      "moved": true
    },
    {
      "ni": 2731,
      "currentLat": -0.2993760791533524,
      "currentLng": -76.62174224853517,
      "originalLat": -0.295281699,
      "originalLng": -76.65981669,
      "nucleoName": "UNIDAD EDUCATIVA COMUNITARIA INTERCULTURAL BILINGÜE LUIS FELIPE WAJAREI",
      "moved": true
    },
    {
      "ni": 275,
      "currentLat": 0.436015689069555,
      "currentLng": -79.58152770996095,
      "originalLat": 0.380122767,
      "originalLng": -79.5792658,
      "nucleoName": "UNIDAD EDUCATIVA  CIUDAD DE GUARANDA",
      "moved": true
    },
    {
      "ni": 420,
      "currentLat": -1.2846061065237515,
      "currentLng": -79.47715759277345,
      "originalLat": -0.990596559,
      "originalLng": -79.57263445,
      "nucleoName": "UNIDAD EDUCATIVA PUEBLO NUEVO",
      "moved": true
    },
    {
      "ni": 1019,
      "currentLat": -2.1857489471296665,
      "currentLng": -80.26473999023439,
      "originalLat": -1.740008697,
      "originalLng": -80.19363603,
      "nucleoName": "UNIDAD EDUCATIVA DRA MATILDE HIDALGO DE PROCEL",
      "moved": true
    },
    {
      "ni": 1414,
      "currentLat": -1.5907532346635287,
      "currentLng": -80.23109436035158,
      "originalLat": -1.630388892,
      "originalLng": -80.23713889,
      "nucleoName": "UNIDAD EDUCATIVA FISCAL GUALE",
      "moved": true
    },
    {
      "ni": 1415,
      "currentLat": -1.4781837718245692,
      "currentLng": -80.31143188476564,
      "originalLat": -1.531105467,
      "originalLng": -80.22754082,
      "nucleoName": "27 DE OCTUBRE",
      "moved": true
    },
    {
      "ni": 1421,
      "currentLat": 0.29868944299732597,
      "currentLng": -79.90425109863283,
      "originalLat": 0.181472189,
      "originalLng": -79.91669441,
      "nucleoName": "UNIDAD EDUCATIVA VICTOR MANUEL PENAHERRERA",
      "moved": true
    },
    {
      "ni": 1520,
      "currentLat": -0.7003609764007139,
      "currentLng": -80.28533935546876,
      "originalLat": -0.820152624,
      "originalLng": -80.31981183,
      "nucleoName": "GABRIELA MERO QUIJIJE",
      "moved": true
    },
    {
      "ni": 1532,
      "currentLat": 0.14419540442527654,
      "currentLng": -79.21211242675783,
      "originalLat": 0.054333011,
      "originalLng": -79.25353041,
      "nucleoName": "UNIDAD EDUCATIVA CEPE",
      "moved": true
    },
    {
      "ni": 1640,
      "currentLat": -0.039910308,
      "currentLng": -79.49535683,
      "originalLat": -0.039910308,
      "originalLng": -79.49535683,
      "nucleoName": "UNIDAD EDUCATIVA JOAQUIN GALLEGOS LARA",
      "moved": false
    },
    {
      "ni": 1770,
      "currentLat": -3.00681151,
      "currentLng": -78.92127037,
      "originalLat": -3.00681151,
      "originalLng": -78.92127037,
      "nucleoName": "UNIDAD EDUCATIVA DEL MILENIO QUINGEO",
      "moved": false
    },
    {
      "ni": 1923,
      "currentLat": -1.6291902030258645,
      "currentLng": -78.89247894287111,
      "originalLat": -1.70114555,
      "originalLng": -78.76979392,
      "nucleoName": "UNIDAD EDUCATIVA TOMAS OLEAS",
      "moved": true
    },
    {
      "ni": 2011,
      "currentLat": -0.960406181,
      "currentLng": -78.89749626,
      "originalLat": -0.960406181,
      "originalLng": -78.89749626,
      "nucleoName": "UNIDAD EDUCATIVA COMUNITARIA INTERCULTURAL BILINGÜE JATARI UNANCHA",
      "moved": false
    },
    {
      "ni": 2152,
      "currentLat": -4.181387789216434,
      "currentLng": -79.24575805664064,
      "originalLat": -4.260824026,
      "originalLng": -79.21847126,
      "nucleoName": "COLEGIO DE BACHILLERATO VILCABAMBA",
      "moved": true
    },
    {
      "ni": 2201,
      "currentLat": -0.978422291664164,
      "currentLng": -77.16590881347658,
      "originalLat": -0.884699868,
      "originalLng": -77.29490538,
      "nucleoName": "UNIDAD EDUCATIVA COMUNITARIA INTERCULTURAL BILINGÜE SAN JOSE DE CHONTA PUNTA",
      "moved": true
    },
    {
      "ni": 16,
      "currentLat": -0.7340039700327483,
      "currentLng": -79.08851623535158,
      "originalLat": -1.286945526,
      "originalLng": -79.31932645,
      "nucleoName": "UNIDAD EDUCATIVA LAS NAVES",
      "moved": true
    },
    {
      "ni": 56,
      "currentLat": -3.588416697,
      "currentLng": -79.66672224,
      "originalLat": -3.588416697,
      "originalLng": -79.66672224,
      "nucleoName": "UNIDAD EDUCATIVA ANGEL TINOCO RUIZ",
      "moved": false
    },
    {
      "ni": 360,
      "currentLat": -1.9689116926042782,
      "currentLng": -80.03883361816408,
      "originalLat": -1.780380318,
      "originalLng": -79.90980132,
      "nucleoName": "UNIDAD EDUCATIVA PLAN INTERNACIONAL",
      "moved": true
    },
    {
      "ni": 432,
      "currentLat": -0.7621540360190787,
      "currentLng": -79.48608398437501,
      "originalLat": -1.092471592,
      "originalLng": -79.64653199,
      "nucleoName": "UNIDAD EDUCATIVA GUAYAS Y QUIL",
      "moved": true
    },
    {
      "ni": 841,
      "currentLat": -2.0677272919037955,
      "currentLng": -80.36499023437501,
      "originalLat": -2.233908203,
      "originalLng": -79.92915953,
      "nucleoName": "ESCUELA DE EDUCACIÓN BÁSICA FISCAL CARLOS CALDERON CHICO",
      "moved": true
    },
    {
      "ni": 1447,
      "currentLat": -1.0203012955021493,
      "currentLng": -80.31829833984376,
      "originalLat": -1.052472226,
      "originalLng": -80.26766667,
      "nucleoName": "UNIDAD EDUCATIVA FISCAL ALAJUELA",
      "moved": true
    },
    {
      "ni": 1455,
      "currentLat": -1.271563087631464,
      "currentLng": -80.21392822265626,
      "originalLat": -1.031499997,
      "originalLng": -80.24041666,
      "nucleoName": "UNIDAD EDUCATIVA GUARANDA NO 43",
      "moved": true
    },
    {
      "ni": 1760,
      "currentLat": -2.9409836885461096,
      "currentLng": -79.18052673339845,
      "originalLat": -2.913529774,
      "originalLng": -79.00291157,
      "nucleoName": "ESCUELA DE EDUCACIÓN BÁSICA GABRIELA  MISTRAL",
      "moved": true
    },
    {
      "ni": 1852,
      "currentLat": -3.0232695607477087,
      "currentLng": -78.78055572509767,
      "originalLat": -3.048932012,
      "originalLng": -78.79812825,
      "nucleoName": "UNIDAD EDUCATIVA SIGSIG",
      "moved": true
    },
    {
      "ni": 1919,
      "currentLat": -2.152238392,
      "currentLng": -78.80387988,
      "originalLat": -2.152238392,
      "originalLng": -78.80387988,
      "nucleoName": "UNIDAD EDUCATIVA JUAN FRANCISCO YEROVI",
      "moved": false
    },
    {
      "ni": 1926,
      "currentLat": -1.8742079081520777,
      "currentLng": -78.47396850585939,
      "originalLat": -1.938550553,
      "originalLng": -78.71253849,
      "nucleoName": "UNIDAD EDUCATIVA VELASCO IBARRA",
      "moved": true
    },
    {
      "ni": 2154,
      "currentLat": -3.624208441,
      "currentLng": -79.23686613,
      "originalLat": -3.624208441,
      "originalLng": -79.23686613,
      "nucleoName": "UNIDAD EDUCATIVA SARAGURO",
      "moved": false
    },
    {
      "ni": 2189,
      "currentLat": -3.048694734,
      "currentLng": -78.00310102,
      "originalLat": -3.048694734,
      "originalLng": -78.00310102,
      "nucleoName": "ESCUELA DE EDUCACIÓN BÁSICA 1 DE MARZO",
      "moved": false
    },
    {
      "ni": 2225,
      "currentLat": -0.19775351362548124,
      "currentLng": -76.93382263183595,
      "originalLat": -0.190526413,
      "originalLng": -76.91117131,
      "nucleoName": "24 DE OCTUBRE",
      "moved": true
    },
    {
      "ni": 2688,
      "currentLat": -0.18882717282791286,
      "currentLng": -78.38539123535158,
      "originalLat": -0.337339794,
      "originalLng": -78.4456945,
      "nucleoName": "JUAN DE SALINAS",
      "moved": true
    },
    {
      "ni": 2825,
      "currentLat": -4.036535592757741,
      "currentLng": -78.63327026367188,
      "originalLat": -4.04950618,
      "originalLng": -78.68319439,
      "nucleoName": "UNIDAD EDUCATIVA DEL MILENIO GUAYZIMI",
      "moved": true
    },
    {
      "ni": 2826,
      "currentLat": -4.677375074534636,
      "currentLng": -79.08233642578126,
      "originalLat": -4.651739616,
      "originalLng": -79.13242463,
      "nucleoName": "UNIDAD EDUCATIVA ORIENTE ECUATORIANO",
      "moved": true
    },
    {
      "ni": 1,
      "currentLat": -2.788738944879288,
      "currentLng": -79.68521118164064,
      "originalLat": -2.902541407,
      "originalLng": -79.60471643,
      "nucleoName": "UNIDAD EDUCATIVA ABDÓN CALDERÓN",
      "moved": true
    },
    {
      "ni": 5,
      "currentLat": -3.262480287,
      "currentLng": -79.28256375,
      "originalLat": -3.262480287,
      "originalLng": -79.28256375,
      "nucleoName": "UNIDAD EDUCATIVA JAIME ROLDÓS AGUILERA",
      "moved": false
    },
    {
      "ni": 328,
      "currentLat": -1.352394393517556,
      "currentLng": -79.85824584960939,
      "originalLat": -1.309966082,
      "originalLng": -79.85433749,
      "nucleoName": "UNIDAD EDUCATIVA BASICA MANUELA CAÑIZARES",
      "moved": true
    },
    {
      "ni": 1046,
      "currentLat": -1.9243054921857554,
      "currentLng": -79.8973846435547,
      "originalLat": -1.955772611,
      "originalLng": -79.72563332,
      "nucleoName": "NUEVA UNIDAD EDUCATIVA FISCAL JOSE MARÍA VELASCO IBARRA",
      "moved": true
    },
    {
      "ni": 1083,
      "currentLat": -0.4380755656648379,
      "currentLng": -78.40118408203125,
      "originalLat": 0.357553535,
      "originalLng": -78.51048606,
      "nucleoName": "UNIDAD EDUCATIVA APUELA",
      "moved": true
    },
    {
      "ni": 1262,
      "currentLat": -1.4026766391911742,
      "currentLng": -80.17410278320314,
      "originalLat": -1.462761611,
      "originalLng": -80.26086401,
      "nucleoName": "UNIDAD EDUCATIVA LAS MERCEDES",
      "moved": true
    },
    {
      "ni": 1288,
      "currentLat": -0.8122744254223913,
      "currentLng": -80.36705017089845,
      "originalLat": -0.699282586,
      "originalLng": -80.1099384,
      "nucleoName": "UNIDAD EDUCATIVA RAYMUNDO AVEIGA",
      "moved": true
    },
    {
      "ni": 1292,
      "currentLat": -0.5939377267990424,
      "currentLng": -80.19676208496095,
      "originalLat": -0.671035737,
      "originalLng": -80.25247073,
      "nucleoName": "UNIDAD EDUCATIVA BARQUERO",
      "moved": true
    },
    {
      "ni": 1833,
      "currentLat": -3.158853361,
      "currentLng": -79.1484241,
      "originalLat": -3.158853361,
      "originalLng": -79.1484241,
      "nucleoName": "ESCUELA DE EDUCACIÓN BÁSICA 27 DE FEBRERO",
      "moved": false
    },
    {
      "ni": 1845,
      "currentLat": -2.765763338161747,
      "currentLng": -78.70399475097658,
      "originalLat": -2.833333319,
      "originalLng": -78.76611113,
      "nucleoName": "UNIDAD EDUCATIVA FISCOMISIONAL AGRONÓMICO SALESIANO",
      "moved": true
    },
    {
      "ni": 1863,
      "currentLat": -1.2698468960141467,
      "currentLng": -78.93779754638673,
      "originalLat": -1.288652613,
      "originalLng": -78.95980358,
      "nucleoName": "UNIDAD EDUCATIVA DEL MILENIO INTERCULTURAL BILINGÜE SIMIATUG",
      "moved": true
    },
    {
      "ni": 1878,
      "currentLat": -2.701977989057156,
      "currentLng": -78.96800994873048,
      "originalLat": -2.714393263,
      "originalLng": -78.89000779,
      "nucleoName": "ESCUELA DE EDUCACIÓN BÁSICA HÉROES DE VERDELOMA",
      "moved": true
    },
    {
      "ni": 2186,
      "currentLat": -2.151111125,
      "currentLng": -77.69775003,
      "originalLat": -2.151111125,
      "originalLng": -77.69775003,
      "nucleoName": "UNIDAD EDUCATIVA COMUNITARIA INTERCULTURAL BILINGÜE ANTONIO SAMANIEGO",
      "moved": false
    },
    {
      "ni": 2193,
      "currentLat": -0.7456759705043304,
      "currentLng": -77.77633666992189,
      "originalLat": -0.843499979,
      "originalLng": -77.79825002,
      "nucleoName": "UNIDAD EDUCATIVA FISCOMISIONAL JAIME ROLDOS AGUILERA",
      "moved": true
    },
    {
      "ni": 2210,
      "currentLat": -1.0388377310354873,
      "currentLng": -77.8099822998047,
      "originalLat": -0.987242668,
      "originalLng": -77.82884951,
      "nucleoName": "UNIDAD EDUCATIVA FISCOMISIONAL SAN JOSE",
      "moved": true
    },
    {
      "ni": 2266,
      "currentLat": -0.061666971,
      "currentLng": -78.16699997,
      "originalLat": -0.061666971,
      "originalLng": -78.16699997,
      "nucleoName": "JOSE ACOSTA VALLEJO",
      "moved": false
    },
    {
      "ni": 2322,
      "currentLat": -1.655958373798425,
      "currentLng": -79.991455078125,
      "originalLat": -0.197774386,
      "originalLng": -78.49874905,
      "nucleoName": "UNIDAD EDUCATIVA PARTICULAR CARDENAL SPELLMAN",
      "moved": true
    },
    {
      "ni": 10,
      "currentLat": -1.842638828894023,
      "currentLng": -79.19151306152345,
      "originalLat": -1.955687586,
      "originalLng": -79.23755127,
      "nucleoName": "EEB DARIO C GUEVARA",
      "moved": true
    },
    {
      "ni": 175,
      "currentLat": -3.442826834894567,
      "currentLng": -79.969482421875,
      "originalLat": -3.476955296,
      "originalLng": -79.96288688,
      "nucleoName": "UNIDAD EDUCATIVA PARTICULAR CEPWOL   ALTAMIRA",
      "moved": true
    },
    {
      "ni": 273,
      "currentLat": 0.4346424376927781,
      "currentLng": -79.44419860839845,
      "originalLat": 0.329573568,
      "originalLng": -79.46211476,
      "nucleoName": "UNIDAD EDUCATIVA ALEJANDRO OTOYA BRIONES",
      "moved": true
    },
    {
      "ni": 280,
      "currentLat": 0.6983011933174791,
      "currentLng": -79.52590942382812,
      "originalLat": 0.653346189,
      "originalLng": -79.54072461,
      "nucleoName": "UNIDAD EDUCATIVA JUAN CARLOS MATHEUS POZO",
      "moved": true
    },
    {
      "ni": 736,
      "currentLat": -2.171339813648831,
      "currentLng": -79.7926712036133,
      "originalLat": -2.083838456,
      "originalLng": -79.89733903,
      "nucleoName": "UNIDAD EDUCATIVA FISCAL REPÚBLICA DE FILIPINAS",
      "moved": true
    },
    {
      "ni": 1057,
      "currentLat": -2.256208023,
      "currentLng": -79.62793996,
      "originalLat": -2.256208023,
      "originalLng": -79.62793996,
      "nucleoName": "UNIDAD EDUCATIVA EMILIO ISAIAS ABIHANNA",
      "moved": false
    },
    {
      "ni": 1074,
      "currentLat": -1.4061088354351594,
      "currentLng": -80.70007324218751,
      "originalLat": -1.780285062,
      "originalLng": -79.99640669,
      "nucleoName": "UNIDAD EDUCATIVA JOSE ABEL CASTILLO",
      "moved": true
    },
    {
      "ni": 1135,
      "currentLat": -1.9243054921857554,
      "currentLng": -79.5018768310547,
      "originalLat": -1.958539841,
      "originalLng": -79.40266832,
      "nucleoName": "UNIDAD EDUCATIVA PUEBLONUEVO",
      "moved": true
    },
    {
      "ni": 1159,
      "currentLat": -1.191930620381516,
      "currentLng": -79.6172332763672,
      "originalLat": -1.186617636,
      "originalLng": -79.51129675,
      "nucleoName": "UNIDAD  EDUCATIVA PRIMERO DE AGOSTO",
      "moved": true
    },
    {
      "ni": 1162,
      "currentLat": -1.5674161533935116,
      "currentLng": -79.19837951660158,
      "originalLat": -1.765840208,
      "originalLng": -79.25623453,
      "nucleoName": "UNIDAD EDUCATIVA AGUIRRE ABAD",
      "moved": true
    },
    {
      "ni": 1274,
      "currentLat": -0.46348066295631035,
      "currentLng": -80.15487670898439,
      "originalLat": -0.572500004,
      "originalLng": -80.17719445,
      "nucleoName": "UNIDAD EDUCATIVA JUAN CRUZ AIZPRUA",
      "moved": true
    },
    {
      "ni": 1276,
      "currentLat": -0.10574334817385038,
      "currentLng": -79.3041229248047,
      "originalLat": -0.031333329,
      "originalLng": -79.82708333,
      "nucleoName": "UNIDAD EDUCATIVA 22 DE AGOSTO",
      "moved": true
    },
    {
      "ni": 1293,
      "currentLat": -0.6728971285762397,
      "currentLng": -80.0786590576172,
      "originalLat": -0.658617051,
      "originalLng": -80.0429322,
      "nucleoName": "UNIDAD EDUCATIVA DR ODILON GOMEZ ANDRADE",
      "moved": true
    },
    {
      "ni": 1294,
      "currentLat": -1.071791124463939,
      "currentLng": -79.68246459960939,
      "originalLat": -0.69907049,
      "originalLng": -80.071333,
      "nucleoName": "UNIDAD EDUCATIVA PARTICULAR EL BEJUCAL",
      "moved": true
    },
    {
      "ni": 1434,
      "currentLat": -0.9598855151728071,
      "currentLng": -80.4631805419922,
      "originalLat": -1.019449142,
      "originalLng": -80.46741686,
      "nucleoName": "ARCO IRIS",
      "moved": true
    },
    {
      "ni": 1500,
      "currentLat": -1.345701455472609,
      "currentLng": -80.3368377685547,
      "originalLat": -1.2097703,
      "originalLng": -80.14934628,
      "nucleoName": "UNIDAD EDUCATIVA LA UNION",
      "moved": true
    },
    {
      "ni": 1539,
      "currentLat": 0.14282211771738432,
      "currentLng": -78.74313354492189,
      "originalLat": 0.141361018,
      "originalLng": -78.76550001,
      "nucleoName": "UNIDAD EDUCATIVA 24 DE JULIO",
      "moved": true
    },
    {
      "ni": 1654,
      "currentLat": -0.321916672,
      "currentLng": -78.99463891,
      "originalLat": -0.321916672,
      "originalLng": -78.99463891,
      "nucleoName": "UNIDAD EDUCATIVA DR ALFREDO BAQUERIZO MORENO",
      "moved": false
    },
    {
      "ni": 1738,
      "currentLat": -2.840175237792396,
      "currentLng": -78.95668029785158,
      "originalLat": -2.812416658,
      "originalLng": -78.99424999,
      "nucleoName": "UNIDAD EDUCATIVA CHECA",
      "moved": true
    },
    {
      "ni": 1740,
      "currentLat": -3.0860083536600884,
      "currentLng": -79.03289794921876,
      "originalLat": -3.087805588,
      "originalLng": -79.01172224,
      "nucleoName": "UNIDAD EDUCATIVA CUMBE",
      "moved": true
    },
    {
      "ni": 1856,
      "currentLat": -1.4788701887242113,
      "currentLng": -78.89350891113283,
      "originalLat": -1.601520655,
      "originalLng": -79.00170709,
      "nucleoName": "UNIDAD EDUCATIVA GUARANDA",
      "moved": true
    },
    {
      "ni": 1880,
      "currentLat": -2.560554766,
      "currentLng": -78.93520458,
      "originalLat": -2.560554766,
      "originalLng": -78.93520458,
      "nucleoName": "ESCUELA DE EDUCACIÓN BÁSICA  LUIS ROBERTO CHACON",
      "moved": false
    },
    {
      "ni": 1930,
      "currentLat": -1.616149170097301,
      "currentLng": -78.64837646484376,
      "originalLat": -1.593530762,
      "originalLng": -78.69499825,
      "nucleoName": "UNIDAD EDUCATIVA SAN ANDRES",
      "moved": true
    },
    {
      "ni": 2013,
      "currentLat": -1.0141224598278935,
      "currentLng": -78.68648529052736,
      "originalLat": -1.069970446,
      "originalLng": -78.69991248,
      "nucleoName": "UNIDAD EDUCATIVA CUSUBAMBA",
      "moved": true
    },
    {
      "ni": 2024,
      "currentLat": -0.7388100915908471,
      "currentLng": -78.58108520507814,
      "originalLat": -0.833944234,
      "originalLng": -78.66960262,
      "nucleoName": "ESCUELA DE EDUCACION BASICA NACIONES UNIDAS",
      "moved": true
    },
    {
      "ni": 2155,
      "currentLat": -3.4668157512807953,
      "currentLng": -79.18670654296875,
      "originalLat": -3.606222259,
      "originalLng": -79.21013889,
      "nucleoName": "UNIDAD EDUCATIVA PROFESOR VIRGILIO ABARCA MONTESINOS",
      "moved": true
    },
    {
      "ni": 2179,
      "currentLat": -2.5630790490985462,
      "currentLng": -77.47970581054689,
      "originalLat": -2.701416639,
      "originalLng": -78.23769444,
      "nucleoName": "UNIDAD EDUCATIVA TAYUZA",
      "moved": true
    },
    {
      "ni": 2192,
      "currentLat": -0.025405882956517214,
      "currentLng": -78.82553100585938,
      "originalLat": -0.90890712,
      "originalLng": -77.80639873,
      "nucleoName": "UNIDAD EDUCATIVA FISCOMISIONAL MARIA INMACULADA",
      "moved": true
    },
    {
      "ni": 2200,
      "currentLat": -1.060361113,
      "currentLng": -77.54941668,
      "originalLat": -1.060361113,
      "originalLng": -77.54941668,
      "nucleoName": "UNIDAD EDUCATIVA FISCOMISIONAL PADRE OTTORINO TODESCATO",
      "moved": false
    },
    {
      "ni": 2224,
      "currentLat": -0.3271848062488973,
      "currentLng": -77.01793670654298,
      "originalLat": -0.33338591,
      "originalLng": -76.99455611,
      "nucleoName": "RIO COCA",
      "moved": true
    },
    {
      "ni": 2282,
      "currentLat": 0.06111143860831213,
      "currentLng": -78.10592651367189,
      "originalLat": 0.06953952,
      "originalLng": -78.13359543,
      "nucleoName": "PROVINCIA EL ORO",
      "moved": true
    },
    {
      "ni": 2702,
      "currentLat": -0.044913683,
      "currentLng": -77.20046314,
      "originalLat": -0.044913683,
      "originalLng": -77.20046314,
      "nucleoName": "ABOGADO JUAN BENIGNO VELA HERVAS",
      "moved": false
    },
    {
      "ni": 2727,
      "currentLat": -0.12222280769467331,
      "currentLng": -76.31378173828126,
      "originalLat": -0.039123466,
      "originalLng": -76.59277568,
      "nucleoName": "UNIDAD EDUCATIVA PACAYACU",
      "moved": true
    },
    {
      "ni": 31,
      "currentLat": -2.4407967605024994,
      "currentLng": -79.34326171875001,
      "originalLat": -2.344381914,
      "originalLng": -79.30199951,
      "nucleoName": "UNIDAD EDUCATIVA AMAZONAS",
      "moved": true
    },
    {
      "ni": 49,
      "currentLat": -1.3649221509479177,
      "currentLng": -79.0459442138672,
      "originalLat": -1.108742463,
      "originalLng": -79.26626534,
      "nucleoName": "UNIDAD  EDUCATIVA  GUAPARA",
      "moved": true
    },
    {
      "ni": 64,
      "currentLat": -3.235126546797047,
      "currentLng": -79.97497558593751,
      "originalLat": -3.245055994,
      "originalLng": -79.83363895,
      "nucleoName": "ESCUELA DE EDUCACION BASICA ZOILA UGARTE DE LANDIVAR",
      "moved": true
    },
    {
      "ni": 178,
      "currentLat": -3.736819444924971,
      "currentLng": -79.6172332763672,
      "originalLat": -3.692750038,
      "originalLng": -79.61224991,
      "nucleoName": "ESCUELA DE EDUCACION BASICA GUILLERMO MALDONADO VALENCIA",
      "moved": true
    },
    {
      "ni": 257,
      "currentLat": 0.5280229211990857,
      "currentLng": -79.99557495117189,
      "originalLat": 0.500895682,
      "originalLng": -79.97251666,
      "nucleoName": "UNIDAD EDUCATIVA GABRIEL IRIARTE RIOS",
      "moved": true
    },
    {
      "ni": 259,
      "currentLat": 0.578004193,
      "currentLng": -79.63901713,
      "originalLat": 0.578004193,
      "originalLng": -79.63901713,
      "nucleoName": "UNIDAD EDUCATIVA  REPUBLICA DE CUBA",
      "moved": false
    },
    {
      "ni": 266,
      "currentLat": 0.418611537,
      "currentLng": -79.24581859,
      "originalLat": 0.418611537,
      "originalLng": -79.24581859,
      "nucleoName": "UNIDAD EDUCATIVA BATALLA DE PICHINCHA",
      "moved": false
    },
    {
      "ni": 1056,
      "currentLat": -3.2241576677116073,
      "currentLng": -78.97933959960939,
      "originalLat": -2.041832224,
      "originalLng": -79.8563485,
      "nucleoName": "UNIDAD EDUCATIVA PARTICULAR MONTE TABOR NAZARET",
      "moved": true
    },
    {
      "ni": 1087,
      "currentLat": -4.33343403,
      "currentLng": -79.5545064,
      "originalLat": -4.33343403,
      "originalLng": -79.5545064,
      "nucleoName": "UNIDAD EDUCATIVA CARIAMANGA",
      "moved": false
    },
    {
      "ni": 1173,
      "currentLat": -1.3916935774402412,
      "currentLng": -79.5952606201172,
      "originalLat": -1.425898095,
      "originalLng": -79.5601853,
      "nucleoName": "ESCUELA DE EDUCACION BASICA GRAN COLOMBIA",
      "moved": true
    },
    {
      "ni": 1228,
      "currentLat": -0.797722634,
      "currentLng": -79.35432623,
      "originalLat": -0.797722634,
      "originalLng": -79.35432623,
      "nucleoName": "ESCUELA DE EDUCACION BASICA EL VERGEL",
      "moved": false
    },
    {
      "ni": 1322,
      "currentLat": -0.39687792971574315,
      "currentLng": -80.03402709960938,
      "originalLat": -0.439704493,
      "originalLng": -80.00136038,
      "nucleoName": "UNIDAD EDUCATIVA RAYMUNDO AVEIGA MOREIRA",
      "moved": true
    },
    {
      "ni": 1430,
      "currentLat": -0.7525418387094969,
      "currentLng": -79.75284576416017,
      "originalLat": -0.77030518,
      "originalLng": -79.69953239,
      "nucleoName": "UNIDAD EDUCATIVA FISCAL ERNESTO VELASQUEZ KUFFO",
      "moved": true
    },
    {
      "ni": 1442,
      "currentLat": -1.3312858343461043,
      "currentLng": -79.99214172363281,
      "originalLat": -1.047316387,
      "originalLng": -80.46140668,
      "nucleoName": "VICENTE ROCAFUERTE",
      "moved": true
    },
    {
      "ni": 1533,
      "currentLat": 0.26023775268020405,
      "currentLng": -79.2876434326172,
      "originalLat": 0.297322354,
      "originalLng": -79.27191516,
      "nucleoName": "UNIDAD EDUCATIVA LIBERTADOR SIMON BOLIVAR",
      "moved": true
    },
    {
      "ni": 1715,
      "currentLat": 0.008926391565455,
      "currentLng": -79.23202514648439,
      "originalLat": -0.049164509,
      "originalLng": -79.18220723,
      "nucleoName": "UNIDAD EDUCATIVA PROF RICARDO ALVAREZ MANTILLA",
      "moved": true
    },
    {
      "ni": 1886,
      "currentLat": -2.722211342819596,
      "currentLng": -78.36547851562501,
      "originalLat": -2.512456423,
      "originalLng": -78.93031672,
      "nucleoName": "UNIDAD EDUCATIVA EL TAMBO",
      "moved": true
    },
    {
      "ni": 1922,
      "currentLat": -2.0883131104210912,
      "currentLng": -78.67996215820314,
      "originalLat": -2.289156071,
      "originalLng": -78.92399467,
      "nucleoName": "UNIDAD EDUCATIVA CHUNCHI",
      "moved": true
    },
    {
      "ni": 1927,
      "currentLat": -1.9894987687132895,
      "currentLng": -78.80081176757814,
      "originalLat": -2.07930878,
      "originalLng": -78.73412702,
      "nucleoName": "UNIDAD EDUCATIVA DEL MILENIO GUARDIANA DE LA LENGUA 27 DE FEBRERO",
      "moved": true
    },
    {
      "ni": 1937,
      "currentLat": -1.5828598394658553,
      "currentLng": -78.51242065429689,
      "originalLat": -1.643496476,
      "originalLng": -78.67234172,
      "nucleoName": "ESCUELA DE EDUCACION BASICA GRAL JUAN LAVALLE",
      "moved": true
    },
    {
      "ni": 2212,
      "currentLat": 0.9173192068570714,
      "currentLng": -78.145751953125,
      "originalLat": -0.983708192,
      "originalLng": -77.81315398,
      "nucleoName": "UNIDAD EDUCATIVA NACIONAL TENA",
      "moved": true
    },
    {
      "ni": 2260,
      "currentLat": -1.71917812,
      "currentLng": -77.84488714,
      "originalLat": -1.71917812,
      "originalLng": -77.84488714,
      "nucleoName": "UNIDAD EDUCATIVA MUSHULLACTA",
      "moved": false
    },
    {
      "ni": 2404,
      "currentLat": -0.41198375451568836,
      "currentLng": -78.81042480468751,
      "originalLat": -0.15663048,
      "originalLng": -78.49843136,
      "nucleoName": "UNIDAD EDUCATIVA PARTICULAR BILINGÜE INTISANA",
      "moved": true
    },
    {
      "ni": 2563,
      "currentLat": -0.09201045849970794,
      "currentLng": -78.29200744628908,
      "originalLat": -0.206492061,
      "originalLng": -78.48511199,
      "nucleoName": "ESCUELA DE EDUCACION BASICA QUINTILIANO SANCHEZ",
      "moved": true
    },
    {
      "ni": 2634,
      "currentLat": 0.19912679640452333,
      "currentLng": -78.11279296875001,
      "originalLat": -0.144972228,
      "originalLng": -78.46577776,
      "nucleoName": "UNIDAD EDUCATIVA PARTICULAR LETORT",
      "moved": true
    },
    {
      "ni": 2711,
      "currentLat": -0.067311907,
      "currentLng": -76.88054795,
      "originalLat": -0.067311907,
      "originalLng": -76.88054795,
      "nucleoName": "UNIDAD EDUCATIVA SEBASTIAN DE BENALCAZAR",
      "moved": false
    },
    {
      "ni": 2728,
      "currentLat": 0.08720394582458894,
      "currentLng": -77.16110229492189,
      "originalLat": 0.081608908,
      "originalLng": -76.99207405,
      "nucleoName": "UNIDAD EDUCATIVA UNION NACIONAL DE EDUCADORES",
      "moved": true
    },
    {
      "ni": 2738,
      "currentLat": -0.1634214092790364,
      "currentLng": -76.63032531738283,
      "originalLat": -0.190011973,
      "originalLng": -76.65419603,
      "nucleoName": "UNIDAD EDUCATIVA TENIENTE CORONEL LAURO GUERRERO",
      "moved": true
    },
    {
      "ni": 2802,
      "currentLat": -1.312408107932581,
      "currentLng": -78.60958099365236,
      "originalLat": -1.385326642,
      "originalLng": -78.5338366,
      "nucleoName": "UNIDAD EDUCATIVA HUAMBALO",
      "moved": true
    },
    {
      "ni": 6,
      "currentLat": -2.8662354211137324,
      "currentLng": -79.80056762695312,
      "originalLat": -3.276587508,
      "originalLng": -79.3156086,
      "nucleoName": "ESCUELA DE EDUCACIÓN BÁSICA FERNANDO DE ARAGÓN",
      "moved": true
    },
    {
      "ni": 37,
      "currentLat": -2.207872869,
      "currentLng": -79.13589842,
      "originalLat": -2.207872869,
      "originalLng": -79.13589842,
      "nucleoName": "UNIDAD EDUCATIVA CUMANDÁ",
      "moved": false
    },
    {
      "ni": 42,
      "currentLat": -0.9677808212607859,
      "currentLng": -79.23374176025392,
      "originalLat": -0.942315071,
      "originalLng": -79.27055035,
      "nucleoName": "UNIDAD EDUCATIVA DR NESTOR MOGOLLON LOPEZ",
      "moved": true
    },
    {
      "ni": 47,
      "currentLat": -0.24581833766323194,
      "currentLng": -79.31098937988283,
      "originalLat": -0.716971811,
      "originalLng": -79.11850394,
      "nucleoName": "UNIDAD EDUCATIVA PUCAYACU",
      "moved": true
    },
    {
      "ni": 136,
      "currentLat": -3.786836565820832,
      "currentLng": -79.90631103515625,
      "originalLat": -3.781792593,
      "originalLng": -79.91541094,
      "nucleoName": "COLEGIO DE BACHILLERATO MARCABELÍ",
      "moved": true
    },
    {
      "ni": 143,
      "currentLat": -3.323667137,
      "currentLng": -79.7261389,
      "originalLat": -3.323667137,
      "originalLng": -79.7261389,
      "nucleoName": "UNIDAD EDUCATIVA DR LEONIDAS GARCIA ORTIZ",
      "moved": false
    },
    {
      "ni": 267,
      "currentLat": 0.522529987983518,
      "currentLng": -79.33502197265625,
      "originalLat": 0.395170296,
      "originalLng": -79.41633224,
      "nucleoName": "UNIDAD EDUCATIVA DEL MILENIO MALIMPIA",
      "moved": true
    },
    {
      "ni": 272,
      "currentLat": 0.29868944299732597,
      "currentLng": -79.60899353027344,
      "originalLat": 0.2968224,
      "originalLng": -79.57598975,
      "nucleoName": "UNIDAD EDUCATIVA 12 DE ENERO",
      "moved": true
    },
    {
      "ni": 283,
      "currentLat": 1.3896342476555246,
      "currentLng": -78.84475708007812,
      "originalLat": 0.831336427,
      "originalLng": -79.41771337,
      "nucleoName": "UNIDAD EDUCATIVA  ARMENGOL LARA VALENCIA",
      "moved": true
    },
    {
      "ni": 361,
      "currentLat": -1.8968549410319089,
      "currentLng": -80.21495819091798,
      "originalLat": -1.792710204,
      "originalLng": -80.0059111,
      "nucleoName": "UNIDAD EDUCATIVA ROSA OLGA VILLACRES LOZANO",
      "moved": true
    },
    {
      "ni": 938,
      "currentLat": -1.8340601776528953,
      "currentLng": -80.09307861328126,
      "originalLat": -1.879184625,
      "originalLng": -80.08087831,
      "nucleoName": "UNIDAD EDUCATIVA VIRGEN DEL CARMEN",
      "moved": true
    },
    {
      "ni": 1133,
      "currentLat": -1.9908712313470716,
      "currentLng": -79.20867919921876,
      "originalLat": -1.992404228,
      "originalLng": -79.35416002,
      "nucleoName": "UNIDAD EDUCATIVA 29 DE AGOSTO",
      "moved": true
    },
    {
      "ni": 1246,
      "currentLat": -1.4205240044068992,
      "currentLng": -79.45999145507812,
      "originalLat": -1.351143086,
      "originalLng": -79.39734956,
      "nucleoName": "UNIDAD EDUCATIVA ZAPOTAL",
      "moved": true
    },
    {
      "ni": 1249,
      "currentLat": -1.4599936469666488,
      "currentLng": -79.76623535156251,
      "originalLat": -1.631961286,
      "originalLng": -79.74204319,
      "nucleoName": "UNIDAD EDUCATIVA DR VICTOR EMILIO ESTRADA",
      "moved": true
    },
    {
      "ni": 1279,
      "currentLat": -0.5396953881051821,
      "currentLng": -80.04226684570314,
      "originalLat": -0.705748282,
      "originalLng": -80.09755615,
      "nucleoName": "UNIDAD EDUCATIVA AMAZONAS",
      "moved": true
    },
    {
      "ni": 1318,
      "currentLat": -0.40666463,
      "currentLng": -79.90055679,
      "originalLat": -0.40666463,
      "originalLng": -79.90055679,
      "nucleoName": "UNIDAD EDUCATIVA DR CARLOS ROMO DAVILA",
      "moved": false
    },
    {
      "ni": 1418,
      "currentLat": -1.6106581837702312,
      "currentLng": -80.36705017089845,
      "originalLat": -1.549950088,
      "originalLng": -80.43070877,
      "nucleoName": "UNIDAD EDUCATIVA FISCAL PAJAN",
      "moved": true
    },
    {
      "ni": 1419,
      "currentLat": 0.16204812380266767,
      "currentLng": -79.92622375488283,
      "originalLat": -0.027027776,
      "originalLng": -79.96827778,
      "nucleoName": "UNIDAD EDUCATIVA 12 DE OCTUBRE",
      "moved": true
    },
    {
      "ni": 1425,
      "currentLat": 0.077741487,
      "currentLng": -80.03392491,
      "originalLat": 0.077741487,
      "originalLng": -80.03392491,
      "nucleoName": "CIUDAD DE PEDERNALES",
      "moved": false
    },
    {
      "ni": 1445,
      "currentLat": -0.9022149100110908,
      "currentLng": -79.92073059082033,
      "originalLat": -1.028666665,
      "originalLng": -80.34377778,
      "nucleoName": "UNIDAD EDUCATIVA AZUAY N 13",
      "moved": true
    },
    {
      "ni": 1505,
      "currentLat": -1.0965059374397197,
      "currentLng": -80.46249389648439,
      "originalLat": -1.208920861,
      "originalLng": -80.37045208,
      "nucleoName": "ESCUELA DE EDUCACION BASICA ANGEL ARTEAGA CAÑARTE",
      "moved": true
    },
    {
      "ni": 1535,
      "currentLat": 0.3007493513363511,
      "currentLng": -79.15718078613283,
      "originalLat": 0.123674933,
      "originalLng": -79.25107937,
      "nucleoName": "UNIDAD EDUCATIVA SANTIAGO APOSTOL",
      "moved": true
    },
    {
      "ni": 1704,
      "currentLat": -0.16273476655253102,
      "currentLng": -79.56642150878906,
      "originalLat": -0.639879892,
      "originalLng": -79.22921866,
      "nucleoName": "UNIDAD EDUCATIVA JAIME DEL HIERRO",
      "moved": true
    },
    {
      "ni": 1798,
      "currentLat": -2.81960099320032,
      "currentLng": -78.26248168945314,
      "originalLat": -2.851579836,
      "originalLng": -79.0153808,
      "nucleoName": "UNIDAD EDUCATIVA SININCAY",
      "moved": true
    },
    {
      "ni": 1839,
      "currentLat": -2.885920289,
      "currentLng": -78.77852393,
      "originalLat": -2.885920289,
      "originalLng": -78.77852393,
      "nucleoName": "UNIDAD EDUCATIVA GUALACEO",
      "moved": false
    },
    {
      "ni": 1850,
      "currentLat": -3.1350311752713904,
      "currentLng": -78.86947631835939,
      "originalLat": -3.19008243,
      "originalLng": -78.95670286,
      "nucleoName": "UNIDAD EDUCATIVA JIMA",
      "moved": true
    },
    {
      "ni": 1864,
      "currentLat": -1.432193361079424,
      "currentLng": -79.22103881835939,
      "originalLat": -1.290235556,
      "originalLng": -78.96064675,
      "nucleoName": "UNIDAD EDUCATIVA FELIX GRANJA GAMAZO",
      "moved": true
    },
    {
      "ni": 1907,
      "currentLat": 0.656833309,
      "currentLng": -77.72063889,
      "originalLat": 0.656833309,
      "originalLng": -77.72063889,
      "nucleoName": "CESAR ANTONIO MOSQUERA",
      "moved": false
    },
    {
      "ni": 1917,
      "currentLat": -1.691648704756987,
      "currentLng": -78.76510620117189,
      "originalLat": -2.19855445,
      "originalLng": -78.84810892,
      "nucleoName": "UNIDAD EDUCATIVA CIUDAD DE ALAUSÍ",
      "moved": true
    },
    {
      "ni": 2007,
      "currentLat": -0.7456759705043304,
      "currentLng": -78.71704101562501,
      "originalLat": -0.957985961,
      "originalLng": -78.70043916,
      "nucleoName": "UNIDAD EDUCATIVA BELISARIO QUEVEDO",
      "moved": true
    },
    {
      "ni": 2012,
      "currentLat": -0.8802449120369874,
      "currentLng": -78.71292114257814,
      "originalLat": -0.961873602,
      "originalLng": -78.89872831,
      "nucleoName": "UNIDAD EDUCATIVA DEL MILENIO CACIQUE TUMBALA",
      "moved": true
    },
    {
      "ni": 2112,
      "currentLat": -4.021124247369748,
      "currentLng": -79.34600830078126,
      "originalLat": -3.998666646,
      "originalLng": -79.35255559,
      "nucleoName": "UNIDAD EDUCATIVA FISCOMISIONAL SAN JUAN BAUTISTA",
      "moved": true
    },
    {
      "ni": 2140,
      "currentLat": -4.039617826768424,
      "currentLng": -79.20936584472658,
      "originalLat": -4.00791631,
      "originalLng": -79.20526722,
      "nucleoName": "ESCUELA DE EDUCACION BASICA ALONSO DE MERCADILLO",
      "moved": true
    },
    {
      "ni": 2144,
      "currentLat": -3.20016283285717,
      "currentLng": -78.21510314941408,
      "originalLat": -3.97402141,
      "originalLng": -79.22448241,
      "nucleoName": "COLEGIO DE BACHILLERATO PARTICULAR  ANTONIO PEÑA CELI",
      "moved": true
    },
    {
      "ni": 2171,
      "currentLat": -2.301666682,
      "currentLng": -78.09777778,
      "originalLat": -2.301666682,
      "originalLng": -78.09777778,
      "nucleoName": "UNIDAD EDUCATIVA ANGEL NOGUERA VILLAREAL",
      "moved": false
    },
    {
      "ni": 2172,
      "currentLat": -2.565822880490445,
      "currentLng": -78.16909790039064,
      "originalLat": -2.389851733,
      "originalLng": -78.13477848,
      "nucleoName": "UNIDAD EDUCATIVA DEL MILENIO BOSCO WISUMA",
      "moved": true
    },
    {
      "ni": 2180,
      "currentLat": -2.429310257171467,
      "currentLng": -78.17047119140626,
      "originalLat": -2.535891967,
      "originalLng": -78.16266125,
      "nucleoName": "UNIDAD EDUCATIVA HUAMBI",
      "moved": true
    },
    {
      "ni": 2194,
      "currentLat": 1.2825466868972577,
      "currentLng": -79.23889160156251,
      "originalLat": -1.164779132,
      "originalLng": -77.85617471,
      "nucleoName": "UNIDAD EDUCATIVA CARLOS JULIO AROSEMENA TOLA",
      "moved": true
    },
    {
      "ni": 2338,
      "currentLat": -0.026092528394979782,
      "currentLng": -78.46229553222658,
      "originalLat": -0.103405617,
      "originalLng": -78.4314255,
      "nucleoName": "UNIDAD EDUCATIVA FISCAL PABLO MUÑOZ VEGA",
      "moved": true
    },
    {
      "ni": 2401,
      "currentLat": 0.10299677069976723,
      "currentLng": -78.39706420898439,
      "originalLat": -0.121696934,
      "originalLng": -78.50669496,
      "nucleoName": "UE PARTICULAR CASA DE LA CULTURA ECUATORIANA BENJAMIN CARRION N2",
      "moved": true
    },
    {
      "ni": 2560,
      "currentLat": -0.27603042637268993,
      "currentLng": -78.60305786132814,
      "originalLat": -0.256770452,
      "originalLng": -78.54968229,
      "nucleoName": "UNIDAD EDUCATIVA 24 DE MAYO",
      "moved": true
    },
    {
      "ni": 2613,
      "currentLat": 0.00961303706427177,
      "currentLng": -78.69094848632814,
      "originalLat": -0.16216318,
      "originalLng": -78.49023006,
      "nucleoName": "UNIDAD EDUCATIVA LICEO POLICIAL",
      "moved": true
    },
    {
      "ni": 2709,
      "currentLat": -0.04257201756715983,
      "currentLng": -76.53762817382814,
      "originalLat": 0.049170953,
      "originalLng": -76.67412566,
      "nucleoName": "UNIDAD EDUCATIVA DURENO",
      "moved": true
    },
    {
      "ni": 2723,
      "currentLat": 0.098951478,
      "currentLng": -76.88292212,
      "originalLat": 0.098951478,
      "originalLng": -76.88292212,
      "nucleoName": "UNIDAD EDUCATIVA ORIENTE ECUATORIANO",
      "moved": false
    },
    {
      "ni": 2822,
      "currentLat": -3.60702413,
      "currentLng": -78.57719643,
      "originalLat": -3.60702413,
      "originalLng": -78.57719643,
      "nucleoName": "UNIDAD EDUCATIVA ARUTAM",
      "moved": false
    },
    {
      "ni": 9,
      "currentLat": -1.6360538707001928,
      "currentLng": -79.31785583496095,
      "originalLat": -1.631665703,
      "originalLng": -79.25250231,
      "nucleoName": "UNIDAD EDUCATIVA  CALUMA",
      "moved": true
    },
    {
      "ni": 12,
      "currentLat": -1.3443285428313179,
      "currentLng": -79.33845520019533,
      "originalLat": -1.43206291,
      "originalLng": -79.2773757,
      "nucleoName": "ESCUELA DE EDUCACION BASICA ADOLFO PAEZ",
      "moved": true
    },
    {
      "ni": 39,
      "currentLat": -2.047141206345157,
      "currentLng": -78.98208618164064,
      "originalLat": -1.997779964,
      "originalLng": -78.96346001,
      "nucleoName": "UNIDAD EDUCATIVA  CARLOS MARIA DE  LA CONDAMINE",
      "moved": true
    },
    {
      "ni": 41,
      "currentLat": -0.945124676749773,
      "currentLng": -79.37072753906251,
      "originalLat": -0.931935169,
      "originalLng": -79.21970778,
      "nucleoName": "UNIDAD EDUCATIVA  FEDERACIÓN DEPORTIVA DE COTOPAXI",
      "moved": true
    },
    {
      "ni": 43,
      "currentLat": -0.15518169504009435,
      "currentLng": -78.96423339843751,
      "originalLat": -0.802991492,
      "originalLng": -79.1566977,
      "nucleoName": "UNIDAD EDUCATIVA  GUASAGANDA",
      "moved": true
    },
    {
      "ni": 190,
      "currentLat": 0.880999114,
      "currentLng": -79.81266194,
      "originalLat": 0.880999114,
      "originalLng": -79.81266194,
      "nucleoName": "ESCUELA  DE EDUCACION BASICA JAIME ROLDOS AGULERA",
      "moved": false
    },
    {
      "ni": 261,
      "currentLat": 0.29182307909385774,
      "currentLng": -79.43664550781251,
      "originalLat": 0.146800343,
      "originalLng": -79.56132431,
      "nucleoName": "UNIDAD EDUCATIVA  15 DE AGOSTO",
      "moved": true
    },
    {
      "ni": 330,
      "currentLat": -1.4699467525049636,
      "currentLng": -79.92828369140625,
      "originalLat": -1.471245024,
      "originalLng": -79.92399755,
      "nucleoName": "UNIDAD EDUCATIVA LUIS GODIN",
      "moved": true
    },
    {
      "ni": 334,
      "currentLat": -1.1589785722368195,
      "currentLng": -79.17434692382814,
      "originalLat": -1.544296243,
      "originalLng": -80.01373009,
      "nucleoName": "UNIDAD EDUCATIVA COLIMES",
      "moved": true
    },
    {
      "ni": 651,
      "currentLat": -2.156587463228066,
      "currentLng": -79.97531890869142,
      "originalLat": -2.134927233,
      "originalLng": -79.91251399,
      "nucleoName": "ESCUELA DE EDUCACION BASICA FISCAL SIMON BOLIVAR",
      "moved": true
    },
    {
      "ni": 784,
      "currentLat": -1.99910598312332,
      "currentLng": -79.63165283203125,
      "originalLat": -2.095621726,
      "originalLng": -79.93008026,
      "nucleoName": "UNIDAD EDUCATIVA PARTICULAR GENERACION NUEVO MILENIO",
      "moved": true
    },
    {
      "ni": 799,
      "currentLat": -2.2475007985315716,
      "currentLng": -80.08552551269533,
      "originalLat": -2.176089414,
      "originalLng": -79.90017374,
      "nucleoName": "UNIDAD EDUCATIVA PARTICULAR MATILDE AMADOR SANTISTEVAN",
      "moved": true
    },
    {
      "ni": 1004,
      "currentLat": -1.8570508698571522,
      "currentLng": -79.77996826171875,
      "originalLat": -1.914813594,
      "originalLng": -80.01020332,
      "nucleoName": "ESCUELA DE EDUCACIÓN BÁSICA CORINA PARRAL DE VELASCO IBARRA",
      "moved": true
    }
  ],
  "customBuffers": [
    {
      "id": "custom_2",
      "lat": 1.26675774823251,
      "lng": -78.94569396972658,
      "name": "Buffer Personalizado #2",
      "originalLat": 1.272936040103872,
      "originalLng": -78.96286010742189
    },
    {
      "id": "custom_3",
      "lat": 0.7944233971090807,
      "lng": -77.73445129394533,
      "name": "Buffer Personalizado #3",
      "originalLat": 0.7944233971090807,
      "originalLng": -77.73445129394533
    },
    {
      "id": "custom_4",
      "lat": 0.5664733149916276,
      "lng": -77.83332824707033,
      "name": "Buffer Personalizado #4",
      "originalLat": 0.5664733149916276,
      "originalLng": -77.83332824707033
    },
    {
      "id": "custom_6",
      "lat": 0.6117895216845025,
      "lng": -77.96516418457033,
      "name": "Buffer Personalizado #6",
      "originalLat": 0.6090430955245705,
      "originalLng": -77.97340393066408
    },
    {
      "id": "custom_7",
      "lat": 0.5012448268669448,
      "lng": -78.06472778320314,
      "name": "Buffer Personalizado #7",
      "originalLat": 0.5074243970285124,
      "originalLng": -78.16017150878908
    },
    {
      "id": "custom_8",
      "lat": 0.19500694772740854,
      "lng": -76.57608032226562,
      "name": "Buffer Personalizado #8",
      "originalLat": 0.08308407732761865,
      "originalLng": -76.89605712890625
    },
    {
      "id": "custom_9",
      "lat": -1.1768276466031546,
      "lng": -79.04113769531251,
      "name": "Buffer Personalizado #9",
      "originalLat": -1.1768276466031546,
      "originalLng": -79.04113769531251
    },
    {
      "id": "custom_10",
      "lat": 0.8651404631516638,
      "lng": -78.46984863281251,
      "name": "Buffer Personalizado #10",
      "originalLat": 0.8651404631516638,
      "originalLng": -78.46984863281251
    },
    {
      "id": "custom_14",
      "lat": -0.5390087730201523,
      "lng": -78.5735321044922,
      "name": "Buffer Personalizado #14",
      "originalLat": -0.6138493403822785,
      "originalLng": -78.6346435546875
    },
    {
      "id": "custom_15",
      "lat": -2.41353151190461,
      "lng": -77.50030517578126,
      "name": "Buffer Personalizado #15",
      "originalLat": -2.41353151190461,
      "originalLng": -77.50030517578126
    },
    {
      "id": "custom_16",
      "lat": -0.8919164897822682,
      "lng": -78.57662200927736,
      "name": "Buffer Personalizado #16",
      "originalLat": -0.868376574,
      "originalLng": -79.02850119
    },
    {
      "id": "custom_17",
      "lat": -3.9587909559445706,
      "lng": -78.86947631835939,
      "name": "Buffer Personalizado #17",
      "originalLat": -3.9587909559445706,
      "originalLng": -78.86947631835939
    },
    {
      "id": "custom_18",
      "lat": -1.689589664916075,
      "lng": -79.44351196289064,
      "name": "Buffer Personalizado #18",
      "originalLat": -1.689589664916075,
      "originalLng": -79.44351196289064
    },
    {
      "id": "custom_19",
      "lat": 1.043643455908483,
      "lng": -79.25056457519533,
      "name": "Buffer Personalizado #19",
      "originalLat": 1.0601201709472332,
      "originalLng": -79.20387268066408
    },
    {
      "id": "custom_23",
      "lat": -2.18883660062711,
      "lng": -80.79895019531251,
      "name": "Buffer Personalizado #23",
      "originalLat": -2.1850628010452477,
      "originalLng": -80.76873779296876
    },
    {
      "id": "custom_25",
      "lat": -1.558493082782663,
      "lng": -80.09033203125001,
      "name": "Buffer Personalizado #25",
      "originalLat": -1.0113763068489454,
      "originalLng": -80.31555175781251
    },
    {
      "id": "custom_26",
      "lat": 0.6303278611785316,
      "lng": -79.89669799804689,
      "name": "Buffer Personalizado #26",
      "originalLat": 0.6303278611785316,
      "originalLng": -79.89669799804689
    },
    {
      "id": "custom_27",
      "lat": -1.6573310908088101,
      "lng": -79.57672119140626,
      "name": "Buffer Personalizado #27",
      "originalLat": -1.415022141,
      "originalLng": -80.22318580666666
    },
    {
      "id": "custom_31",
      "lat": -3.882066623633622,
      "lng": -79.32266235351564,
      "name": "Buffer Personalizado #31",
      "originalLat": -3.882066623633622,
      "originalLng": -79.32266235351564
    },
    {
      "id": "custom_32",
      "lat": -2.1733982697220986,
      "lng": -79.56024169921876,
      "name": "Buffer Personalizado #32",
      "originalLat": -2.1733982697220986,
      "originalLng": -79.56024169921876
    },
    {
      "id": "custom_34",
      "lat": -4.381912276333333,
      "lng": -78.68529207666667,
      "name": "Buffer Personalizado #34",
      "originalLat": -4.381912276333333,
      "originalLng": -78.68529207666667
    },
    {
      "id": "custom_37",
      "lat": -1.9764603168450903,
      "lng": -79.35012817382814,
      "name": "Buffer Personalizado #37",
      "originalLat": -1.7698110854,
      "originalLng": -79.314119722
    },
    {
      "id": "custom_40",
      "lat": -0.6131627342376987,
      "lng": -79.74494934082033,
      "name": "Buffer Personalizado #40",
      "originalLat": -0.6131627342376987,
      "originalLng": -79.74494934082033
    },
    {
      "id": "custom_41",
      "lat": -0.7643463894,
      "lng": -77.34969928199999,
      "name": "Buffer Personalizado #41",
      "originalLat": -0.7643463894,
      "originalLng": -77.34969928199999
    },
    {
      "id": "custom_42",
      "lat": -3.2063329870791315,
      "lng": -79.8314666748047,
      "name": "Buffer Personalizado #42",
      "originalLat": -3.2063329870791315,
      "originalLng": -79.8314666748047
    },
    {
      "id": "custom_43",
      "lat": -1.193303613906183,
      "lng": -80.013427734375,
      "name": "Buffer Personalizado #43",
      "originalLat": -1.3415827152334823,
      "originalLng": -80.00518798828126
    },
    {
      "id": "custom_45",
      "lat": -2.8826941788448694,
      "lng": -79.56436157226564,
      "name": "Buffer Personalizado #45",
      "originalLat": -2.2818062586229764,
      "originalLng": -79.9409866333008
    },
    {
      "id": "custom_47",
      "lat": -4.083452772038619,
      "lng": -78.93264770507814,
      "name": "Buffer Personalizado #47",
      "originalLat": -4.083452772038619,
      "originalLng": -78.93264770507814
    },
    {
      "id": "custom_49",
      "lat": -1.5478096964999999,
      "lng": -80.80611680999999,
      "name": "Buffer Personalizado #49",
      "originalLat": -1.5478096964999999,
      "originalLng": -80.80611680999999
    },
    {
      "id": "custom_51",
      "lat": 0.38795174748133154,
      "lng": -78.51173400878908,
      "name": "Buffer Personalizado #51",
      "originalLat": 0.38795174748133154,
      "originalLng": -78.51173400878908
    },
    {
      "id": "custom_53",
      "lat": -2.0927733356438414,
      "lng": -79.67697143554689,
      "name": "Buffer Personalizado #53",
      "originalLat": -2.0927733356438414,
      "originalLng": -79.67697143554689
    },
    {
      "id": "custom_54",
      "lat": -2.756876269,
      "lng": -80.23957744500001,
      "name": "Buffer Personalizado #54",
      "originalLat": -2.756876269,
      "originalLng": -80.23957744500001
    },
    {
      "id": "custom_55",
      "lat": 0.9626317106698682,
      "lng": -79.52796936035158,
      "name": "Buffer Personalizado #55",
      "originalLat": 0.8445433907014214,
      "originalLng": -79.85824584960939
    },
    {
      "id": "custom_58",
      "lat": -2.70190458025,
      "lng": -79.4076903075,
      "name": "Buffer Personalizado #58",
      "originalLat": -2.70190458025,
      "originalLng": -79.4076903075
    },
    {
      "id": "custom_60",
      "lat": -2.264653630113098,
      "lng": -78.72459411621095,
      "name": "Buffer Personalizado #60",
      "originalLat": -2.2647161301666667,
      "originalLng": -78.83181204
    },
    {
      "id": "custom_61",
      "lat": -2.1583028601797505,
      "lng": -77.54837036132814,
      "name": "Buffer Personalizado #61",
      "originalLat": -2.1559013039057975,
      "originalLng": -77.5408172607422
    },
    {
      "id": "custom_62",
      "lat": -0.9852877385504244,
      "lng": -77.44056701660158,
      "name": "Buffer Personalizado #62",
      "originalLat": -0.9852877385504244,
      "originalLng": -77.44056701660158
    },
    {
      "id": "custom_63",
      "lat": -1.773322161558728,
      "lng": -80.27366638183595,
      "name": "Buffer Personalizado #63",
      "originalLat": -1.6381129664274963,
      "originalLng": -80.3533172607422
    },
    {
      "id": "custom_67",
      "lat": -2.2159390629694484,
      "lng": -80.93284606933595,
      "name": "Buffer Personalizado #67",
      "originalLat": -2.2159390629694484,
      "originalLng": -80.93284606933595
    },
    {
      "id": "custom_69",
      "lat": -2.9536698272973974,
      "lng": -79.68452453613283,
      "name": "Buffer Personalizado #69",
      "originalLat": -2.964641506121831,
      "originalLng": -79.6776580810547
    },
    {
      "id": "custom_71",
      "lat": -3.137773643225322,
      "lng": -79.41673278808595,
      "name": "Buffer Personalizado #71",
      "originalLat": -3.137773643225322,
      "originalLng": -79.41673278808595
    },
    {
      "id": "custom_73",
      "lat": -2.12178712575,
      "lng": -79.25216395375,
      "name": "Buffer Personalizado #73",
      "originalLat": -2.12178712575,
      "originalLng": -79.25216395375
    },
    {
      "id": "custom_74",
      "lat": -1.1407861306935172,
      "lng": -78.63189697265626,
      "name": "Buffer Personalizado #74",
      "originalLat": -1.3724730965427336,
      "originalLng": -78.58726501464845
    },
    {
      "id": "custom_75",
      "lat": -2.3145880526666667,
      "lng": -79.13457011999999,
      "name": "Buffer Personalizado #75",
      "originalLat": -2.3145880526666667,
      "originalLng": -79.13457011999999
    },
    {
      "id": "custom_76",
      "lat": -0.021972655711419903,
      "lng": -79.83489990234376,
      "name": "Buffer Personalizado #76",
      "originalLat": -0.05287169659789889,
      "originalLng": -79.85961914062501
    },
    {
      "id": "custom_79",
      "lat": 0.19706687219333444,
      "lng": -79.02534484863283,
      "name": "Buffer Personalizado #79",
      "originalLat": 0.19706687219333444,
      "originalLng": -79.02534484863283
    },
    {
      "id": "custom_80",
      "lat": -3.3900490977429194,
      "lng": -78.46504211425781,
      "name": "Buffer Personalizado #80",
      "originalLat": -3.3900490977429194,
      "originalLng": -78.46504211425781
    },
    {
      "id": "custom_83",
      "lat": -1.0275099221184838,
      "lng": -78.54297637939455,
      "name": "Buffer Personalizado #83",
      "originalLat": -1.050427225,
      "originalLng": -78.5233103125
    },
    {
      "id": "custom_85",
      "lat": -0.2750004700190078,
      "lng": -79.17606353759767,
      "name": "Buffer Personalizado #85",
      "originalLat": -0.26740009352941174,
      "originalLng": -79.1740205382353
    },
    {
      "id": "custom_90",
      "lat": -1.0759102739347317,
      "lng": -79.31922912597658,
      "name": "Buffer Personalizado #90",
      "originalLat": -0.9878694562,
      "originalLng": -79.6519323
    },
    {
      "id": "custom_92",
      "lat": -2.3895332936666667,
      "lng": -79.58309245666668,
      "name": "Buffer Personalizado #92",
      "originalLat": -2.3895332936666667,
      "originalLng": -79.58309245666668
    },
    {
      "id": "custom_93",
      "lat": 1.0415838604315129,
      "lng": -79.40162658691408,
      "name": "Buffer Personalizado #93",
      "originalLat": 1.0326589311777885,
      "originalLng": -79.39407348632814
    },
    {
      "id": "custom_99",
      "lat": -3.337611221061542,
      "lng": -79.8647689819336,
      "name": "Buffer Personalizado #99",
      "originalLat": -3.3396676613972516,
      "originalLng": -79.89120483398439
    },
    {
      "id": "custom_100",
      "lat": 0.3470971811467496,
      "lng": -78.10764312744142,
      "name": "Buffer Personalizado #100",
      "originalLat": 0.3302746601771573,
      "originalLng": -78.13270568847658
    },
    {
      "id": "custom_102",
      "lat": 0.9059909901422089,
      "lng": -79.37982559204103,
      "name": "Buffer Personalizado #102",
      "originalLat": 0.8730359780906259,
      "originalLng": -79.42188262939455
    },
    {
      "id": "custom_103",
      "lat": -1.446951579949189,
      "lng": -78.52649688720703,
      "name": "Buffer Personalizado #103",
      "originalLat": -1.4987761860622613,
      "originalLng": -78.54125976562501
    },
    {
      "id": "custom_106",
      "lat": -1.259206482612979,
      "lng": -80.71311950683594,
      "name": "Buffer Personalizado #106",
      "originalLat": -1.259206482612979,
      "originalLng": -80.71311950683594
    },
    {
      "id": "custom_109",
      "lat": -3.2563784119016823,
      "lng": -79.49844360351564,
      "name": "Buffer Personalizado #109",
      "originalLat": -3.2563784119016823,
      "originalLng": -79.49844360351564
    },
    {
      "id": "custom_111",
      "lat": -0.8277223671121012,
      "lng": -80.50197601318361,
      "name": "Buffer Personalizado #111",
      "originalLat": -0.8277223671121012,
      "originalLng": -80.50197601318361
    },
    {
      "id": "custom_116",
      "lat": -0.434110777,
      "lng": -76.269243794,
      "name": "Buffer Personalizado #116",
      "originalLat": -0.434110777,
      "originalLng": -76.269243794
    },
    {
      "id": "custom_120",
      "lat": -1.1437487305000003,
      "lng": -77.66598470333334,
      "name": "Buffer Personalizado #120",
      "originalLat": -1.1437487305000003,
      "originalLng": -77.66598470333334
    },
    {
      "id": "custom_121",
      "lat": -1.6875306228924756,
      "lng": -80.82298278808595,
      "name": "Buffer Personalizado #121",
      "originalLat": -1.6875306228924756,
      "originalLng": -80.82298278808595
    },
    {
      "id": "custom_125",
      "lat": 0.15586833801828337,
      "lng": -78.60374450683595,
      "name": "Buffer Personalizado #125",
      "originalLat": 0.15586833801828337,
      "originalLng": -78.60374450683595
    },
    {
      "id": "custom_129",
      "lat": -4.0903017666249415,
      "lng": -79.86236572265626,
      "name": "Buffer Personalizado #129",
      "originalLat": -4.103999580061634,
      "originalLng": -79.90768432617188
    },
    {
      "id": "custom_130",
      "lat": -3.653565466275005,
      "lng": -79.85721588134767,
      "name": "Buffer Personalizado #130",
      "originalLat": -3.6463703128402103,
      "originalLng": -79.88021850585939
    },
    {
      "id": "custom_131",
      "lat": 0.1119231465925047,
      "lng": -79.79507446289064,
      "name": "Buffer Personalizado #131",
      "originalLat": 0.1119231465925047,
      "originalLng": -79.79507446289064
    },
    {
      "id": "custom_132",
      "lat": -1.1740816425535396,
      "lng": -77.82440185546876,
      "name": "Buffer Personalizado #132",
      "originalLat": -1.08956942725,
      "originalLng": -77.86086806
    },
    {
      "id": "custom_133",
      "lat": -0.8864239871892505,
      "lng": -79.49329376220705,
      "name": "Buffer Personalizado #133",
      "originalLat": -0.8864239871892505,
      "originalLng": -79.49329376220705
    },
    {
      "id": "custom_135",
      "lat": 0.09201045849970794,
      "lng": -79.5403289794922,
      "name": "Buffer Personalizado #135",
      "originalLat": 0.09201045849970794,
      "originalLng": -79.5403289794922
    },
    {
      "id": "custom_138",
      "lat": -1.6816966586623017,
      "lng": -79.05521392822267,
      "name": "Buffer Personalizado #138",
      "originalLat": -1.7184160228552787,
      "originalLng": -78.9800262451172
    },
    {
      "id": "custom_139",
      "lat": -3.7964285612904134,
      "lng": -78.60992431640626,
      "name": "Buffer Personalizado #139",
      "originalLat": -3.7964285612904134,
      "originalLng": -78.60992431640626
    },
    {
      "id": "custom_141",
      "lat": -3.5538561075541595,
      "lng": -80.06080627441408,
      "name": "Buffer Personalizado #141",
      "originalLat": -3.5538561075541595,
      "originalLng": -80.06080627441408
    },
    {
      "id": "custom_142",
      "lat": -2.573921932,
      "lng": -80.48915542,
      "name": "Buffer Personalizado #142",
      "originalLat": -2.573921932,
      "originalLng": -80.48915542
    },
    {
      "id": "custom_143",
      "lat": -2.64264774589176,
      "lng": -79.63508605957033,
      "name": "Buffer Personalizado #143",
      "originalLat": -2.64264774589176,
      "originalLng": -79.63508605957033
    },
    {
      "id": "custom_145",
      "lat": -4.2246524,
      "lng": -80.36353064833334,
      "name": "Buffer Personalizado #145",
      "originalLat": -4.2246524,
      "originalLng": -80.36353064833334
    },
    {
      "id": "custom_150",
      "lat": -3.513421045640032,
      "lng": -79.83352661132814,
      "name": "Buffer Personalizado #150",
      "originalLat": -3.513421045640032,
      "originalLng": -79.83352661132814
    },
    {
      "id": "custom_151",
      "lat": -1.3220186047688565,
      "lng": -78.47328186035158,
      "name": "Buffer Personalizado #151",
      "originalLat": -1.345701455472609,
      "originalLng": -78.44924926757814
    },
    {
      "id": "custom_152",
      "lat": -3.1041779168448476,
      "lng": -78.49937438964845,
      "name": "Buffer Personalizado #152",
      "originalLat": -3.1041779168448476,
      "originalLng": -78.49937438964845
    },
    {
      "id": "custom_158",
      "lat": -0.6145359464386804,
      "lng": -79.2327117919922,
      "name": "Buffer Personalizado #158",
      "originalLat": -0.7113464708253191,
      "originalLng": -79.10705566406251
    },
    {
      "id": "custom_159",
      "lat": -2.11507427090243,
      "lng": -78.07571411132814,
      "name": "Buffer Personalizado #159",
      "originalLat": -2.11507427090243,
      "originalLng": -78.07571411132814
    },
    {
      "id": "custom_161",
      "lat": -0.7820649476116714,
      "lng": -79.98939514160158,
      "name": "Buffer Personalizado #161",
      "originalLat": -0.911826742598096,
      "originalLng": -79.97772216796876
    },
    {
      "id": "custom_163",
      "lat": -2.571996479583764,
      "lng": -79.30549621582033,
      "name": "Buffer Personalizado #163",
      "originalLat": -2.4903653934242618,
      "originalLng": -79.12902832031251
    },
    {
      "id": "custom_166",
      "lat": -1.261265920807818,
      "lng": -78.73901367185839,
      "name": "Buffer Personalizado #166",
      "originalLat": -1.261265920807818,
      "originalLng": -78.73901367185839
    },
    {
      "id": "custom_168",
      "lat": -0.43395581191069055,
      "lng": -76.60045623779298,
      "name": "Buffer Personalizado #168",
      "originalLat": -0.39687792971574315,
      "originalLng": -76.60766601562501
    },
    {
      "id": "custom_170",
      "lat": 0.7916770781725933,
      "lng": -79.92416381835939,
      "name": "Buffer Personalizado #170",
      "originalLat": 0.7566613544516054,
      "originalLng": -80.05050659179689
    },
    {
      "id": "custom_171",
      "lat": -2.3229717293301575,
      "lng": -80.26473999023439,
      "name": "Buffer Personalizado #171",
      "originalLat": -2.3229717293301575,
      "originalLng": -80.26473999023439
    },
    {
      "id": "custom_172",
      "lat": -3.82999970454646,
      "lng": -80.06698608398439,
      "name": "Buffer Personalizado #172",
      "originalLat": -3.82999970454646,
      "originalLng": -80.06698608398439
    },
    {
      "id": "custom_175",
      "lat": -1.9997922105756145,
      "lng": -80.70831298828126,
      "name": "Buffer Personalizado #175",
      "originalLat": -1.9997922105756145,
      "originalLng": -80.70831298828126
    },
    {
      "id": "custom_178",
      "lat": -1.5571202993274242,
      "lng": -79.48196411132812,
      "name": "Buffer Personalizado #178",
      "originalLat": -1.5571202993274242,
      "originalLng": -79.48196411132812
    },
    {
      "id": "custom_180",
      "lat": 0.6948682195077825,
      "lng": -79.73190307617189,
      "name": "Buffer Personalizado #180",
      "originalLat": 0.6948682195077825,
      "originalLng": -79.73190307617189
    },
    {
      "id": "custom_183",
      "lat": 0.512222247,
      "lng": -78.41411689,
      "name": "Buffer Personalizado #183",
      "originalLat": 0.512222247,
      "originalLng": -78.41411689
    },
    {
      "id": "custom_186",
      "lat": 0.0680000622,
      "lng": -77.29569854399999,
      "name": "Buffer Personalizado #186",
      "originalLat": 0.0680000622,
      "originalLng": -77.29569854399999
    },
    {
      "id": "custom_189",
      "lat": -0.9712135573145547,
      "lng": -80.69286346435548,
      "name": "Buffer Personalizado #189",
      "originalLat": -0.9351696572152137,
      "originalLng": -80.19470214843751
    },
    {
      "id": "custom_190",
      "lat": -1.037795254,
      "lng": -79.08798918,
      "name": "Buffer Personalizado #190",
      "originalLat": -1.037795254,
      "originalLng": -79.08798918
    },
    {
      "id": "custom_195",
      "lat": -1.105773939946715,
      "lng": -80.8696746826172,
      "name": "Buffer Personalizado #195",
      "originalLat": -1.105773939946715,
      "originalLng": -80.8696746826172
    },
    {
      "id": "custom_201",
      "lat": -0.6069929123333333,
      "lng": -80.39087182166666,
      "name": "Buffer Personalizado #201",
      "originalLat": -0.6069929123333333,
      "originalLng": -80.39087182166666
    },
    {
      "id": "custom_202",
      "lat": -0.41198375451568836,
      "lng": -80.42266845703126,
      "name": "Buffer Personalizado #202",
      "originalLat": -0.41198375451568836,
      "originalLng": -80.42266845703126
    },
    {
      "id": "custom_205",
      "lat": 0.9420351909682747,
      "lng": -79.66461181640626,
      "name": "Buffer Personalizado #205",
      "originalLat": 0.9420351909682747,
      "originalLng": -79.66461181640626
    },
    {
      "id": "custom_209",
      "lat": -4.202616853169615,
      "lng": -78.65455627441406,
      "name": "Buffer Personalizado #209",
      "originalLat": -4.202616853169615,
      "originalLng": -78.65455627441406
    },
    {
      "id": "custom_214",
      "lat": -3.433999798714286,
      "lng": -79.42327244714286,
      "name": "Buffer Personalizado #214",
      "originalLat": -3.433999798714286,
      "originalLng": -79.42327244714286
    },
    {
      "id": "custom_215",
      "lat": -2.3414958009992772,
      "lng": -79.43733215332033,
      "name": "Buffer Personalizado #215",
      "originalLat": -2.3607853365555553,
      "originalLng": -79.36882792
    },
    {
      "id": "custom_219",
      "lat": -2.284550660236957,
      "lng": -77.6616668701172,
      "name": "Buffer Personalizado #219",
      "originalLat": -2.284550660236957,
      "originalLng": -77.6616668701172
    },
    {
      "id": "custom_220",
      "lat": -0.4058041023174123,
      "lng": -79.54719543457031,
      "name": "Buffer Personalizado #220",
      "originalLat": -0.46897364515551165,
      "originalLng": -79.44076538085938
    },
    {
      "id": "custom_222",
      "lat": -3.7409305492480764,
      "lng": -79.31854248046876,
      "name": "Buffer Personalizado #222",
      "originalLat": -3.7409305492480764,
      "originalLng": -79.31854248046876
    },
    {
      "id": "custom_225",
      "lat": -1.7918526182207721,
      "lng": -79.53414916992189,
      "name": "Buffer Personalizado #225",
      "originalLat": -1.7877347550967717,
      "originalLng": -79.54719543457031
    },
    {
      "id": "custom_226",
      "lat": -4.169403386075485,
      "lng": -79.44934844970705,
      "name": "Buffer Personalizado #226",
      "originalLat": -4.173854757173578,
      "originalLng": -79.4579315185547
    },
    {
      "id": "custom_228",
      "lat": -1.3772782313340988,
      "lng": -80.54283142089844,
      "name": "Buffer Personalizado #228",
      "originalLat": -1.3800240182955519,
      "originalLng": -80.53253173828126
    },
    {
      "id": "custom_230",
      "lat": 0.8157073064961715,
      "lng": -79.59457397460939,
      "name": "Buffer Personalizado #230",
      "originalLat": 0.8157073064961715,
      "originalLng": -79.59457397460939
    },
    {
      "id": "custom_231",
      "lat": -2.593946811647018,
      "lng": -80.35606384277345,
      "name": "Buffer Personalizado #231",
      "originalLat": -2.610725663857143,
      "originalLng": -80.37104552142857
    },
    {
      "id": "custom_235",
      "lat": -3.5120503347582397,
      "lng": -80.20706176757814,
      "name": "Buffer Personalizado #235",
      "originalLat": -3.5120503347582397,
      "originalLng": -80.20706176757814
    },
    {
      "id": "custom_236",
      "lat": 0.786527725268878,
      "lng": -78.88149261474611,
      "name": "Buffer Personalizado #236",
      "originalLat": 0.786527725268878,
      "originalLng": -78.88149261474611
    },
    {
      "id": "custom_239",
      "lat": -2.445029755333333,
      "lng": -77.66374366333332,
      "name": "Buffer Personalizado #239",
      "originalLat": -2.445029755333333,
      "originalLng": -77.66374366333332
    },
    {
      "id": "custom_241",
      "lat": -0.6495527361122139,
      "lng": -77.26959228515626,
      "name": "Buffer Personalizado #241",
      "originalLat": -0.4321913703333333,
      "originalLng": -77.02253464333333
    },
    {
      "id": "custom_242",
      "lat": -0.2719106004261089,
      "lng": -79.9248504638672,
      "name": "Buffer Personalizado #242",
      "originalLat": -0.42708955067844084,
      "originalLng": -80.26611328125
    },
    {
      "id": "custom_246",
      "lat": -3.9110007529999997,
      "lng": -78.69852233875,
      "name": "Buffer Personalizado #246",
      "originalLat": -3.9110007529999997,
      "originalLng": -78.69852233875
    },
    {
      "id": "custom_247",
      "lat": -1.8093534329506151,
      "lng": -79.00611877441408,
      "name": "Buffer Personalizado #247",
      "originalLat": -1.825535111,
      "originalLng": -79.08697076
    },
    {
      "id": "custom_248",
      "lat": -3.427062360565542,
      "lng": -78.60717773437501,
      "name": "Buffer Personalizado #248",
      "originalLat": -3.427062360565542,
      "originalLng": -78.60717773437501
    },
    {
      "id": "custom_249",
      "lat": -4.462111676045679,
      "lng": -79.75250244140626,
      "name": "Buffer Personalizado #249",
      "originalLat": -4.462111676045679,
      "originalLng": -79.75250244140626
    },
    {
      "id": "custom_255",
      "lat": -3.628553494845424,
      "lng": -79.52865600585939,
      "name": "Buffer Personalizado #255",
      "originalLat": -3.628553494845424,
      "originalLng": -79.52865600585939
    },
    {
      "id": "custom_257",
      "lat": -4.108108878310174,
      "lng": -79.63439941406251,
      "name": "Buffer Personalizado #257",
      "originalLat": -4.108108878310174,
      "originalLng": -79.63439941406251
    },
    {
      "id": "custom_258",
      "lat": -1.917099765022405,
      "lng": -77.92739868164064,
      "name": "Buffer Personalizado #258",
      "originalLat": -2.1299837803333332,
      "originalLng": -77.70003045666667
    },
    {
      "id": "custom_270",
      "lat": -0.2822101626099863,
      "lng": -76.75666809082033,
      "name": "Buffer Personalizado #270",
      "originalLat": -0.2822101626099863,
      "originalLng": -76.75666809082033
    },
    {
      "id": "custom_275",
      "lat": -2.2173113264002184,
      "lng": -77.98301696777345,
      "name": "Buffer Personalizado #275",
      "originalLat": -2.2173113264002184,
      "originalLng": -77.98301696777345
    },
    {
      "id": "custom_276",
      "lat": -4.436782361444635,
      "lng": -79.42634582519533,
      "name": "Buffer Personalizado #276",
      "originalLat": -4.436782361444635,
      "originalLng": -79.42634582519533
    },
    {
      "id": "custom_280",
      "lat": -0.83089453575,
      "lng": -79.1886112,
      "name": "Buffer Personalizado #280",
      "originalLat": -0.83089453575,
      "originalLng": -79.1886112
    },
    {
      "id": "custom_281",
      "lat": -0.6916116115,
      "lng": -76.75561705166668,
      "name": "Buffer Personalizado #281",
      "originalLat": -0.6916116115,
      "originalLng": -76.75561705166668
    },
    {
      "id": "custom_285",
      "lat": -0.04669188936317956,
      "lng": -77.38494873046876,
      "name": "Buffer Personalizado #285",
      "originalLat": -0.04669188936317956,
      "originalLng": -77.38494873046876
    },
    {
      "id": "custom_286",
      "lat": -3.115148067976796,
      "lng": -79.72366333007814,
      "name": "Buffer Personalizado #286",
      "originalLat": -3.115148067976796,
      "originalLng": -79.72366333007814
    },
    {
      "id": "custom_290",
      "lat": -2.536836442116925,
      "lng": -79.44076538085938,
      "name": "Buffer Personalizado #290",
      "originalLat": -2.54021892875,
      "originalLng": -79.4446478425
    },
    {
      "id": "custom_293",
      "lat": -3.6847437963449288,
      "lng": -79.99969482421876,
      "name": "Buffer Personalizado #293",
      "originalLat": -3.4592214735000004,
      "originalLng": -79.96202483
    },
    {
      "id": "custom_299",
      "lat": 0.11741629965158693,
      "lng": -77.02377319335939,
      "name": "Buffer Personalizado #299",
      "originalLat": -0.00034332275390568974,
      "originalLng": -77.00420379638673
    },
    {
      "id": "custom_300",
      "lat": -0.14556869105034712,
      "lng": -76.76490783691408,
      "name": "Buffer Personalizado #300",
      "originalLat": -0.14556869105034712,
      "originalLng": -76.76490783691408
    },
    {
      "id": "custom_305",
      "lat": -4.386121130558996,
      "lng": -79.94888305664062,
      "name": "Buffer Personalizado #305",
      "originalLat": -4.386121130558996,
      "originalLng": -79.94888305664062
    },
    {
      "id": "custom_306",
      "lat": -1.769009434,
      "lng": -77.99082379666667,
      "name": "Buffer Personalizado #306",
      "originalLat": -1.769009434,
      "originalLng": -77.99082379666667
    },
    {
      "id": "custom_307",
      "lat": -4.001260305845256,
      "lng": -79.72366333007814,
      "name": "Buffer Personalizado #307",
      "originalLat": -4.001260305845256,
      "originalLng": -79.72366333007814
    },
    {
      "id": "custom_309",
      "lat": -1.1620678432064027,
      "lng": -78.49594116210939,
      "name": "Buffer Personalizado #309",
      "originalLat": -1.1847223931643918,
      "originalLng": -78.47534179687501
    },
    {
      "id": "custom_315",
      "lat": 0.15586833801828337,
      "lng": -79.6611785888672,
      "name": "Buffer Personalizado #315",
      "originalLat": 0.15586833801828337,
      "originalLng": -79.6611785888672
    },
    {
      "id": "custom_316",
      "lat": -0.41610351998974715,
      "lng": -76.74087524414064,
      "name": "Buffer Personalizado #316",
      "originalLat": -0.41610351998974715,
      "originalLng": -76.74087524414064
    },
    {
      "id": "custom_318",
      "lat": -2.3215995661848083,
      "lng": -80.82984924316408,
      "name": "Buffer Personalizado #318",
      "originalLat": -2.3215995661848083,
      "originalLng": -80.82984924316408
    },
    {
      "id": "custom_322",
      "lat": -0.4820194605101479,
      "lng": -76.42364501953126,
      "name": "Buffer Personalizado #322",
      "originalLat": -0.4820194605101479,
      "originalLng": -76.42364501953126
    },
    {
      "id": "custom_324",
      "lat": -1.4706331719445715,
      "lng": -77.68981933593751,
      "name": "Buffer Personalizado #324",
      "originalLat": -1.4706331719445715,
      "originalLng": -77.68981933593751
    },
    {
      "id": "custom_325",
      "lat": -0.21972602392080884,
      "lng": -80.28671264648439,
      "name": "Buffer Personalizado #325",
      "originalLat": -0.21972602392080884,
      "originalLng": -80.28671264648439
    },
    {
      "id": "custom_332",
      "lat": -4.8953088919445875,
      "lng": -79.08645629882814,
      "name": "Buffer Personalizado #332",
      "originalLat": -4.8953088919445875,
      "originalLng": -79.08645629882814
    },
    {
      "id": "custom_335",
      "lat": 0.13975358200000002,
      "lng": -78.88620126333333,
      "name": "Buffer Personalizado #335",
      "originalLat": 0.13975358200000002,
      "originalLng": -78.88620126333333
    },
    {
      "id": "custom_336",
      "lat": -0.4301096383333333,
      "lng": -76.09227600666667,
      "name": "Buffer Personalizado #336",
      "originalLat": -0.4301096383333333,
      "originalLng": -76.09227600666667
    },
    {
      "id": "custom_337",
      "lat": 0.3769656641356163,
      "lng": -78.24874877929689,
      "name": "Buffer Personalizado #337",
      "originalLat": 0.40168433155818767,
      "originalLng": -78.25218200683594
    },
    {
      "id": "custom_338",
      "lat": -4.355996605048739,
      "lng": -80.22354125976562,
      "name": "Buffer Personalizado #338",
      "originalLat": -4.355996605048739,
      "originalLng": -80.22354125976562
    },
    {
      "id": "custom_340",
      "lat": -3.5527863085,
      "lng": -78.94487289,
      "name": "Buffer Personalizado #340",
      "originalLat": -3.5527863085,
      "originalLng": -78.94487289
    },
    {
      "id": "custom_343",
      "lat": 0.2883898955642887,
      "lng": -78.38333129882814,
      "name": "Buffer Personalizado #343",
      "originalLat": 0.29182307909385774,
      "originalLng": -78.38745117187501
    },
    {
      "id": "custom_344",
      "lat": -2.2758320438,
      "lng": -77.45474281599999,
      "name": "Buffer Personalizado #344",
      "originalLat": -2.2758320438,
      "originalLng": -77.45474281599999
    },
    {
      "id": "custom_345",
      "lat": -1.5035810549524486,
      "lng": -78.01803588867188,
      "name": "Buffer Personalizado #345",
      "originalLat": -1.5035810549524486,
      "originalLng": -78.01803588867188
    },
    {
      "id": "custom_301",
      "lat": -0.5218433709928397,
      "lng": -77.87796020507814,
      "name": "Buffer Personalizado #301",
      "originalLat": -0.5218433709928397,
      "originalLng": -77.87796020507814
    },
    {
      "id": "custom_304",
      "lat": -2.51151832575,
      "lng": -80.22321725500001,
      "name": "Buffer Personalizado #304",
      "originalLat": -2.51151832575,
      "originalLng": -80.22321725500001
    },
    {
      "id": "custom_305",
      "lat": -2.4059850906550366,
      "lng": -78.804931640625,
      "name": "Buffer Personalizado #305",
      "originalLat": -2.4059850906550366,
      "originalLng": -78.804931640625
    },
    {
      "id": "custom_306",
      "lat": -2.3411527648545176,
      "lng": -80.69046020507812,
      "name": "Buffer Personalizado #306",
      "originalLat": -2.3504147112508176,
      "originalLng": -80.67672729492189
    },
    {
      "id": "custom_307",
      "lat": -1.6381129664274963,
      "lng": -77.95074462890626,
      "name": "Buffer Personalizado #307",
      "originalLat": -1.6381129664274963,
      "originalLng": -77.95074462890626
    },
    {
      "id": "custom_308",
      "lat": 0.6550455441838959,
      "lng": -77.72415161132814,
      "name": "Buffer Personalizado #308",
      "originalLat": 0.6550455441838959,
      "originalLng": -77.72415161132814
    },
    {
      "id": "custom_309",
      "lat": -1.07934289424622,
      "lng": -80.59638977050783,
      "name": "Buffer Personalizado #309",
      "originalLat": -1.106803716221284,
      "originalLng": -80.65097808837892
    },
    {
      "id": "custom_311",
      "lat": -1.5818302639606454,
      "lng": -79.70100402832033,
      "name": "Buffer Personalizado #311",
      "originalLat": -1.7040474815,
      "originalLng": -79.72116432
    },
    {
      "id": "custom_315",
      "lat": -2.518490969060616,
      "lng": -79.5787811279297,
      "name": "Buffer Personalizado #315",
      "originalLat": -2.418831625428571,
      "originalLng": -79.26194842142857
    },
    {
      "id": "custom_316",
      "lat": -2.1974741735000003,
      "lng": -79.41016409000001,
      "name": "Buffer Personalizado #316",
      "originalLat": -2.1974741735000003,
      "originalLng": -79.41016409000001
    },
    {
      "id": "custom_317",
      "lat": -1.3189295205441167,
      "lng": -79.71473693847656,
      "name": "Buffer Personalizado #317",
      "originalLat": -1.3276930913333334,
      "originalLng": -79.73374303333333
    },
    {
      "id": "custom_318",
      "lat": -4.1214331795,
      "lng": -80.45619484,
      "name": "Buffer Personalizado #318",
      "originalLat": -4.1214331795,
      "originalLng": -80.45619484
    },
    {
      "id": "custom_320",
      "lat": 0.20256000284989986,
      "lng": -76.82258605957033,
      "name": "Buffer Personalizado #320",
      "originalLat": 0.20256000284989986,
      "originalLng": -76.82258605957033
    },
    {
      "id": "custom_322",
      "lat": -4.420352070868214,
      "lng": -80.37185668945312,
      "name": "Buffer Personalizado #322",
      "originalLat": -4.420352070868214,
      "originalLng": -80.37185668945312
    },
    {
      "id": "custom_324",
      "lat": 0.02265930116714652,
      "lng": -79.37141418457033,
      "name": "Buffer Personalizado #324",
      "originalLat": -0.0749520205,
      "originalLng": -79.32109344
    },
    {
      "id": "custom_325",
      "lat": -0.3302746601771573,
      "lng": -79.78271484375001,
      "name": "Buffer Personalizado #325",
      "originalLat": -0.3302746601771573,
      "originalLng": -79.78271484375001
    },
    {
      "id": "custom_328",
      "lat": 1.2495957492941936,
      "lng": -78.80905151367189,
      "name": "Buffer Personalizado #328",
      "originalLat": 1.1370103264643097,
      "originalLng": -78.72802734375001
    },
    {
      "id": "custom_330",
      "lat": -0.9715568307283757,
      "lng": -80.82916259765626,
      "name": "Buffer Personalizado #330",
      "originalLat": -0.9715568307283757,
      "originalLng": -80.82916259765626
    },
    {
      "id": "custom_331",
      "lat": -0.3309612942533172,
      "lng": -76.48132324218751,
      "name": "Buffer Personalizado #331",
      "originalLat": -0.3309612942533172,
      "originalLng": -76.48132324218751
    },
    {
      "id": "custom_332",
      "lat": 0.424453545,
      "lng": -76.28874603,
      "name": "Buffer Personalizado #332",
      "originalLat": 0.424453545,
      "originalLng": -76.28874603
    },
    {
      "id": "custom_333",
      "lat": -2.3943223575350774,
      "lng": -77.36228942871094,
      "name": "Buffer Personalizado #333",
      "originalLat": -2.3943223575350774,
      "originalLng": -77.36228942871094
    },
    {
      "id": "custom_335",
      "lat": -3.782383103206533,
      "lng": -79.77172851562501,
      "name": "Buffer Personalizado #335",
      "originalLat": -3.4777819106581633,
      "originalLng": -79.57397460937501
    },
    {
      "id": "custom_336",
      "lat": 0.4154168925595725,
      "lng": -77.9528045654297,
      "name": "Buffer Personalizado #336",
      "originalLat": 0.4154168925595725,
      "originalLng": -77.9528045654297
    },
    {
      "id": "custom_337",
      "lat": -1.7401867466666667,
      "lng": -80.53313032,
      "name": "Buffer Personalizado #337",
      "originalLat": -1.7401867466666667,
      "originalLng": -80.53313032
    },
    {
      "id": "custom_338",
      "lat": -0.6660311422152353,
      "lng": -77.10067749023439,
      "name": "Buffer Personalizado #338",
      "originalLat": -0.7831808296666667,
      "originalLng": -77.08175760333333
    },
    {
      "id": "custom_339",
      "lat": -1.220711774,
      "lng": -80.54844333,
      "name": "Buffer Personalizado #339",
      "originalLat": -1.220711774,
      "originalLng": -80.54844333
    },
    {
      "id": "custom_340",
      "lat": 0.385205227966331,
      "lng": -80.02304077148439,
      "name": "Buffer Personalizado #340",
      "originalLat": 0.30212262334655665,
      "originalLng": -80.02166748046876
    },
    {
      "id": "custom_343",
      "lat": -3.677489194,
      "lng": -80.14521417,
      "name": "Buffer Personalizado #343",
      "originalLat": -3.677489194,
      "originalLng": -80.14521417
    },
    {
      "id": "custom_344",
      "lat": -2.134973296440319,
      "lng": -77.86422729492189,
      "name": "Buffer Personalizado #344",
      "originalLat": -2.134973296440319,
      "originalLng": -77.86422729492189
    },
    {
      "id": "custom_345",
      "lat": 0.6584785461746173,
      "lng": -80.03128051757814,
      "name": "Buffer Personalizado #345",
      "originalLat": 0.6138493403822785,
      "originalLng": -80.03814697265626
    },
    {
      "id": "custom_352",
      "lat": 0.05038888,
      "lng": -76.30541663,
      "name": "Buffer Personalizado #352",
      "originalLat": 0.05038888,
      "originalLng": -76.30541663
    },
    {
      "id": "custom_353",
      "lat": -4.301564010881976,
      "lng": -79.4198226928711,
      "name": "Buffer Personalizado #353",
      "originalLat": -4.310122853850741,
      "originalLng": -79.3645477294922
    },
    {
      "id": "custom_357",
      "lat": 0.28152352541109416,
      "lng": -78.74313354492189,
      "name": "Buffer Personalizado #357",
      "originalLat": 0.20324664405209258,
      "originalLng": -78.75549316406251
    },
    {
      "id": "custom_358",
      "lat": -1.4376848025116815,
      "lng": -78.39019775390626,
      "name": "Buffer Personalizado #358",
      "originalLat": -1.426015473741616,
      "originalLng": -78.33938598632814
    },
    {
      "id": "custom_359",
      "lat": -1.5001490068224421,
      "lng": -79.33982849121095,
      "name": "Buffer Personalizado #359",
      "originalLat": -1.4926154355,
      "originalLng": -79.069522055
    },
    {
      "id": "custom_362",
      "lat": -4.829628163332256,
      "lng": -79.2217254638672,
      "name": "Buffer Personalizado #362",
      "originalLat": -4.829628163332256,
      "originalLng": -79.2217254638672
    },
    {
      "id": "custom_364",
      "lat": 1.0289516454934446,
      "lng": -78.97436141967775,
      "name": "Buffer Personalizado #364",
      "originalLat": 0.831498521526855,
      "originalLng": -79.06311035156251
    },
    {
      "id": "custom_365",
      "lat": 1.1223876200008338,
      "lng": -78.87222290039064,
      "name": "Buffer Personalizado #365",
      "originalLat": 1.113668882231005,
      "originalLng": -78.86947631835939
    },
    {
      "id": "custom_366",
      "lat": 1.0257935839190702,
      "lng": -79.10980224609376,
      "name": "Buffer Personalizado #366",
      "originalLat": 0.9200654358283382,
      "originalLng": -78.95736694335939
    },